fire_id,park_agency,park_name,fire_name,fire_year,cause_description,fire_size,fire_size_class,latitude,longitude,state
238468,NPS,Denali National Park & Preserve,MOOSE CRK1,1993,Lightning,11249.0,G,63.6828,-151.0856,AK
238469,NPS,Denali National Park & Preserve,TOLKAT RV,1993,Lightning,3554.0,F,63.9162,-150.119,AK
238470,NPS,Denali National Park & Preserve,KANTISHNA,1996,Miscellaneous,1.0,B,63.5242,-150.9612,AK
238471,NPS,Denali National Park & Preserve,DEPOT,1997,Smoking,0.1,A,63.7359,-148.914,AK
238472,NPS,Denali National Park & Preserve,HOTEL,1997,Smoking,0.1,A,63.7162,-148.9023,AK
238473,NPS,Denali National Park & Preserve,LIL CARIBO,1997,Lightning,108.0,D,63.8517,-150.3543,AK
238474,NPS,Denali National Park & Preserve,RUTH,1997,Lightning,100.0,D,62.6542,-150.3539,AK
238475,NPS,Denali National Park & Preserve,MONTANA CK,1998,Lightning,1.0,B,63.7143,-148.8276,AK
238476,NPS,Denali National Park & Preserve,TOUR BUS,1998,Equipment Use,0.3,B,63.7304,-149.319,AK
238477,NPS,Gates of the Arctic National Park & Preserve,KALULUKTOK,1999,Lightning,80.0,C,67.2817,-154.5708,AK
238478,NPS,Glacier Bay National Park & Preserve,EXCURSION,1993,Campfire,0.1,A,58.4338,-135.4865,AK
238479,NPS,Katmai National Park & Preserve,AMALIK BAY,1993,Debris Burning,6.0,B,58.0993,-154.5355,AK
238480,NPS,Katmai National Park & Preserve,GROSVENOR,1997,Campfire,10.0,C,58.666,-155.4521,AK
238481,NPS,Lake Clark National Park & Preserve,VANDERPOOL,1997,Structure,0.2,A,60.6327,-153.9023,AK
238482,NPS,Wrangell-St. Elias National Park & Preserve,KLAWASI,1993,Lightning,0.1,A,62.0329,-145.3521,AK
238483,NPS,Wrangell-St. Elias National Park & Preserve,CIR#930145,1993,Arson,0.1,A,61.0301,-142.1437,AK
238484,NPS,Yukon-Charley Rivers National Preserve,MONTAUK,1999,Lightning,300.0,E,65.1678,-141.5503,AK
238485,NPS,Casa Grande National Monument,JAMES,1992,Fireworks,0.1,A,32.99302,-111.53117,AZ
238486,NPS,Chiricahua National Monument,ORGAN,1993,Lightning,0.1,A,32.02005,-109.35394,AZ
238487,NPS,Chiricahua National Monument,ELLERBY,1994,Lightning,1.0,B,31.98374,-109.37946,AZ
238488,NPS,Chiricahua National Monument,QUILLIAH,1994,Lightning,0.1,A,32.15155,-109.46814,AZ
238489,NPS,Chiricahua National Monument,BONEYARD,1994,Campfire,0.1,A,32.00299,-109.36915,AZ
238490,NPS,Chiricahua National Monument,CEMETARY,1994,Lightning,0.4,B,32.02903,-109.46497,AZ
238491,NPS,Chiricahua National Monument,PICKET #1,1995,Lightning,0.1,A,32.02714,-109.37562,AZ
238492,NPS,Chiricahua National Monument,MOGUI,1996,Smoking,10.0,C,32.07548,-109.51574,AZ
238493,NPS,Chiricahua National Monument,JESSIEJAME,1996,Lightning,1.5,B,31.98602,-109.31322,AZ
238494,NPS,Chiricahua National Monument,JJCANYON,1997,Campfire,0.1,A,31.98604,-109.31724,AZ
238495,NPS,Chiricahua National Monument,SITE13,1997,Campfire,0.1,A,32.01136,-109.35595,AZ
238496,NPS,Chiricahua National Monument,CHIMNEY,1997,Campfire,0.1,A,32.07356,-109.35998,AZ
238497,NPS,Chiricahua National Monument,KOLMINE,1997,Campfire,0.1,A,32.03056,-109.31884,AZ
238498,NPS,Chiricahua National Monument,TRASHCAN,1997,Miscellaneous,0.1,A,32.00554,-109.35614,AZ
238499,NPS,Chiricahua National Monument,BONITAPARK,1997,Debris Burning,241.0,D,32.0326,-109.3249,AZ
238500,NPS,Chiricahua National Monument,WILLOW,1997,Lightning,7.0,B,32.144,-109.37841,AZ
238501,NPS,Chiricahua National Monument,MOGUL,1997,Lightning,300.0,E,32.13181,-109.56711,AZ
238502,NPS,Chiricahua National Monument,AGAVE,1997,Lightning,0.1,A,32.02258,-109.31372,AZ
238503,NPS,Chiricahua National Monument,RIDGELINE,1997,Lightning,0.1,A,32.03261,-109.31304,AZ
238504,NPS,Chiricahua National Monument,CHARCOAL,1999,Campfire,0.1,A,32.0085,-109.37496,AZ
238505,NPS,Coronado National Memorial,MONTEZUMA,1993,Lightning,75.0,C,31.35177,-110.25064,AZ
238506,NPS,Coronado National Memorial,LIGHTNING1,1994,Lightning,0.1,A,31.35177,-110.25064,AZ
238507,NPS,Coronado National Memorial,BOUNDARY-E,1994,Lightning,0.2,A,31.3351,-110.21731,AZ
238508,NPS,Coronado National Memorial,PINYON,1997,Lightning,0.1,A,31.34412,-110.28275,AZ
238509,NPS,Grand Canyon National Park,PATTY,1992,Campfire,0.1,A,36.09819,-112.09444,AZ
238510,NPS,Grand Canyon National Park,ONEILL,1992,Campfire,0.1,A,36.06485,-112.2,AZ
238511,NPS,Grand Canyon National Park,SYPHER,1992,Campfire,0.1,A,36.7292,-112.0882,AZ
238512,NPS,Grand Canyon National Park,JH,1992,Campfire,0.1,A,36.09819,-112.09167,AZ
238513,NPS,Grand Canyon National Park,P CREEK,1992,Campfire,0.1,A,36.11485,-112.0875,AZ
238514,NPS,Grand Canyon National Park,JF,1992,Campfire,0.1,A,36.10652,-112.00834,AZ
238515,NPS,Grand Canyon National Park,KORLE,1992,Campfire,0.1,A,36.04819,-112.12084,AZ
238516,NPS,Grand Canyon National Park,REID,1992,Campfire,0.1,A,36.05931,-112.21111,AZ
238517,NPS,Grand Canyon National Park,HALE,1992,Campfire,0.1,A,36.04819,-112.11666,AZ
238518,NPS,Grand Canyon National Park,HOTSPINGS,1992,Equipment Use,0.1,A,36.00652,-112.14583,AZ
238519,NPS,Grand Canyon National Park,SCHOOL,1992,Smoking,0.1,A,36.04819,-112.13334,AZ
238520,NPS,Grand Canyon National Park,HOPI,1992,Campfire,0.1,A,36.07319,-112.175,AZ
238521,NPS,Grand Canyon National Park,HADES,1992,Lightning,0.4,B,36.26068,-112.08334,AZ
238522,NPS,Grand Canyon National Park,PICNIC,1992,Campfire,0.1,A,36.03292,-112.075,AZ
238523,NPS,Grand Canyon National Park,315,1992,Campfire,0.1,A,36.04819,-112.12084,AZ
238524,NPS,Grand Canyon National Park,MATHER,1992,Campfire,0.1,A,36.04819,-112.12084,AZ
238525,NPS,Grand Canyon National Park,GROUP,1992,Campfire,0.1,A,36.04819,-112.11666,AZ
238526,NPS,Grand Canyon National Park,168,1992,Campfire,0.1,A,36.04819,-112.11805,AZ
238527,NPS,Grand Canyon National Park,RUSS,1992,Campfire,0.1,A,36.06485,-112.2,AZ
238528,NPS,Grand Canyon National Park,SPRING,1992,Lightning,0.1,A,36.28152,-112.21667,AZ
238529,NPS,Grand Canyon National Park,MAY,1992,Lightning,0.1,A,36.28152,-112.21667,AZ
238530,NPS,Grand Canyon National Park,FRIDAY,1992,Campfire,0.1,A,36.19819,-112.06667,AZ
238531,NPS,Grand Canyon National Park,HERMIT,1992,Campfire,0.1,A,36.08152,-112.2,AZ
238532,NPS,Grand Canyon National Park,JUNE,1992,Lightning,0.4,B,36.4,-112.1341,AZ
238533,NPS,Grand Canyon National Park,ASPEN 19,1992,Campfire,0.1,A,36.01486,-112.15001,AZ
238534,NPS,Grand Canyon National Park,MORAN,1992,Lightning,0.5,B,36.01486,-111.93334,AZ
238535,NPS,Grand Canyon National Park,RANGE,1992,Campfire,0.4,B,36.03153,-112.08333,AZ
238536,NPS,Grand Canyon National Park,CENTURY,1992,Lightning,0.1,A,36.04819,-112.18334,AZ
238537,NPS,Grand Canyon National Park,TRASH CAN,1992,Debris Burning,0.1,A,36.06486,-112.11667,AZ
238538,NPS,Grand Canyon National Park,SUDDATH,1992,Campfire,0.1,A,36.06532,-112.11829,AZ
238539,NPS,Grand Canyon National Park,DEAD,1992,Campfire,0.1,A,36.09819,-112.16667,AZ
238540,NPS,Grand Canyon National Park,DEAD 2,1992,Campfire,0.1,A,36.09819,-112.16667,AZ
238541,NPS,Grand Canyon National Park,OLSON,1992,Campfire,0.1,A,36.06486,-112.16667,AZ
238542,NPS,Grand Canyon National Park,LAME,1992,Campfire,0.1,A,36.04819,-112.13334,AZ
238543,NPS,Grand Canyon National Park,ASPEN 9,1992,Campfire,0.1,A,36.03153,-112.1,AZ
238544,NPS,Grand Canyon National Park,LOST,1992,Lightning,0.1,A,36.03153,-112.25001,AZ
238545,NPS,Grand Canyon National Park,TWO,1992,Campfire,0.8,B,36.3333,-112.3674,AZ
238546,NPS,Grand Canyon National Park,BEACH,1992,Campfire,0.1,A,36.08153,-112.08334,AZ
238547,NPS,Grand Canyon National Park,R&R,1992,Campfire,0.1,A,36.03153,-112.08333,AZ
238548,NPS,Grand Canyon National Park,OUTLET,1992,Lightning,0.5,B,36.23152,-112.1,AZ
238549,NPS,Grand Canyon National Park,SNAG,1992,Lightning,1.8,B,36.28152,-112.2,AZ
238550,NPS,Grand Canyon National Park,HAPPY,1992,Campfire,0.1,A,36.08153,-112.08334,AZ
238551,NPS,Grand Canyon National Park,RIVER,1992,Campfire,0.1,A,36.08153,-112.08334,AZ
238552,NPS,Grand Canyon National Park,TUWEEP,1992,Lightning,0.1,A,36.24819,-113.01667,AZ
238553,NPS,Grand Canyon National Park,HUTTON,1992,Campfire,0.1,A,36.08153,-112.08334,AZ
238554,NPS,Grand Canyon National Park,CULVERT,1992,Children,0.1,A,36.06486,-112.16667,AZ
238555,NPS,Grand Canyon National Park,DAILY,1992,Campfire,0.1,A,36.04819,-111.81666,AZ
238556,NPS,Grand Canyon National Park,YAGER,1992,Campfire,0.1,A,36.08153,-112.1,AZ
238557,NPS,Grand Canyon National Park,HEARST,1992,Lightning,0.1,A,35.96486,-112.0,AZ
238558,NPS,Grand Canyon National Park,WOODRUFF,1992,Campfire,0.1,A,36.04819,-112.11666,AZ
238559,NPS,Grand Canyon National Park,FIR,1992,Campfire,0.1,A,36.03153,-112.15,AZ
238560,NPS,Grand Canyon National Park,WEST,1992,Campfire,0.1,A,36.06486,-112.15,AZ
238561,NPS,Grand Canyon National Park,RIM,1992,Campfire,0.1,A,36.06486,-112.15,AZ
238562,NPS,Grand Canyon National Park,SADDLE,1992,Lightning,0.1,A,36.33152,-112.33334,AZ
238563,NPS,Grand Canyon National Park,FIRE POINT,1992,Lightning,0.1,A,36.33152,-112.33334,AZ
238564,NPS,Grand Canyon National Park,IKES,1992,Lightning,0.1,A,36.33152,-112.25,AZ
238565,NPS,Grand Canyon National Park,DRAGON,1992,Lightning,0.1,A,36.26485,-112.15,AZ
238566,NPS,Grand Canyon National Park,CASTLE,1992,Lightning,0.1,A,36.33152,-112.31667,AZ
238567,NPS,Grand Canyon National Park,SWAMP,1992,Lightning,0.2,A,36.33152,-112.31667,AZ
238568,NPS,Grand Canyon National Park,BIG,1992,Lightning,0.1,A,36.34819,-112.25,AZ
238569,NPS,Grand Canyon National Park,PIASTUCK,1992,Campfire,0.1,A,35.9982,-112.11667,AZ
238570,NPS,Grand Canyon National Park,SHINUMO,1992,Lightning,0.1,A,36.33152,-112.26667,AZ
238571,NPS,Grand Canyon National Park,LANCELOT,1992,Lightning,0.3,B,36.29818,-112.25,AZ
238572,NPS,Grand Canyon National Park,TIYO,1992,Lightning,0.1,A,36.08108,-112.13189,AZ
238573,NPS,Grand Canyon National Park,HEARTY,1992,Campfire,0.1,A,36.06486,-112.1,AZ
238574,NPS,Grand Canyon National Park,MARCUS,1992,Campfire,0.1,A,36.06486,-112.1,AZ
238575,NPS,Grand Canyon National Park,GRAMA,1992,Lightning,0.2,A,36.19819,-112.23333,AZ
238576,NPS,Grand Canyon National Park,GRAMPA,1992,Lightning,0.3,B,35.96486,-112.03334,AZ
238577,NPS,Grand Canyon National Park,PAINT CAN,1992,Lightning,0.2,A,36.29818,-112.25,AZ
238578,NPS,Grand Canyon National Park,E-3,1992,Campfire,0.1,A,36.04819,-112.13334,AZ
238579,NPS,Grand Canyon National Park,P,1992,Campfire,0.1,A,36.04819,-112.11666,AZ
238580,NPS,Grand Canyon National Park,BRO,1992,Miscellaneous,0.1,A,36.04819,-112.11666,AZ
238581,NPS,Grand Canyon National Park,LIL SIS,1992,Miscellaneous,0.1,A,36.04819,-112.11666,AZ
238582,NPS,Grand Canyon National Park,CRYSTAL,1992,Lightning,0.1,A,36.26485,-112.16666,AZ
238583,NPS,Grand Canyon National Park,CROWLEY,1992,Lightning,0.1,A,36.36485,-112.51667,AZ
238584,NPS,Grand Canyon National Park,JUNIPER135,1992,Campfire,0.1,A,36.03153,-112.1,AZ
238585,NPS,Grand Canyon National Park,OUT,1992,Campfire,0.1,A,36.03153,-112.1,AZ
238586,NPS,Grand Canyon National Park,PAT 124,1992,Campfire,0.1,A,36.03154,-112.099,AZ
238587,NPS,Grand Canyon National Park,HALE 95,1992,Campfire,0.1,A,36.03153,-112.1,AZ
238588,NPS,Grand Canyon National Park,STOMP 2,1992,Miscellaneous,0.1,A,36.19819,-112.06667,AZ
238589,NPS,Grand Canyon National Park,HALE 3,1992,Campfire,0.1,A,36.03153,-112.1,AZ
238590,NPS,Grand Canyon National Park,HALE 21,1992,Campfire,0.1,A,36.03153,-112.1,AZ
238591,NPS,Grand Canyon National Park,OAK 79,1992,Campfire,0.1,A,36.04819,-112.11666,AZ
238592,NPS,Grand Canyon National Park,GIBSON,1992,Campfire,0.1,A,36.04819,-112.18334,AZ
238593,NPS,Grand Canyon National Park,FELDMAN,1992,Campfire,0.1,A,36.09819,-112.1,AZ
238594,NPS,Grand Canyon National Park,MYSTERY,1992,Campfire,0.1,A,36.03153,-112.11667,AZ
238595,NPS,Grand Canyon National Park,LINDSTROM,1993,Campfire,0.1,A,36.05236,-112.11667,AZ
238596,NPS,Grand Canyon National Park,SAND DUNES,1993,Campfire,0.1,A,36.10235,-112.09583,AZ
238597,NPS,Grand Canyon National Park,MILLER,1993,Campfire,0.1,A,36.03152,-112.125,AZ
238598,NPS,Grand Canyon National Park,YAVAPAI,1993,Campfire,0.1,A,36.06486,-112.12501,AZ
238599,NPS,Grand Canyon National Park,LUPLOW,1993,Campfire,0.1,A,36.03569,-111.83333,AZ
238600,NPS,Grand Canyon National Park,ANIMAL,1993,Campfire,0.1,A,36.03153,-112.15,AZ
238601,NPS,Grand Canyon National Park,BICYCLE,1993,Campfire,0.1,A,36.03986,-112.18611,AZ
238602,NPS,Grand Canyon National Park,AFTERNOON,1993,Campfire,0.1,A,36.04125,-112.1875,AZ
238603,NPS,Grand Canyon National Park,HERMIT,1993,Lightning,0.1,A,36.04819,-112.21667,AZ
238604,NPS,Grand Canyon National Park,TRACK,1993,Lightning,0.1,A,36.01486,-112.15001,AZ
238605,NPS,Grand Canyon National Park,PIPO,1993,Lightning,0.2,A,35.9667,-112.5341,AZ
238606,NPS,Grand Canyon National Park,SYPHER,1993,Campfire,0.1,A,36.03153,-112.1,AZ
238607,NPS,Grand Canyon National Park,SAGE4,1993,Campfire,0.1,A,36.03153,-112.1,AZ
238608,NPS,Grand Canyon National Park,MAYES,1993,Campfire,0.1,A,36.49818,-111.86666,AZ
238609,NPS,Grand Canyon National Park,TENMILE,1993,Campfire,0.1,A,36.74817,-111.66667,AZ
238610,NPS,Grand Canyon National Park,SAPIN,1993,Campfire,0.1,A,36.00236,-111.88333,AZ
238611,NPS,Grand Canyon National Park,ACOSTA,1993,Campfire,0.1,A,36.00653,-111.88333,AZ
238612,NPS,Grand Canyon National Park,FORCINE,1993,Campfire,0.1,A,36.00292,-111.88334,AZ
238613,NPS,Grand Canyon National Park,E-3,1993,Campfire,0.1,A,36.03152,-112.06667,AZ
238614,NPS,Grand Canyon National Park,EAST,1993,Campfire,0.1,A,36.03152,-112.06667,AZ
238615,NPS,Grand Canyon National Park,RIM,1993,Campfire,0.1,A,36.03152,-112.06667,AZ
238616,NPS,Grand Canyon National Park,POWER,1993,Campfire,0.1,A,36.04819,-112.2,AZ
238617,NPS,Grand Canyon National Park,E-4,1993,Campfire,0.1,A,35.9982,-112.11667,AZ
238618,NPS,Grand Canyon National Park,WRANGLER,1993,Campfire,0.1,A,36.0482,-112.08334,AZ
238619,NPS,Grand Canyon National Park,CEREMONIAL,1993,Campfire,0.1,A,36.06486,-112.06667,AZ
238620,NPS,Grand Canyon National Park,KARLY,1993,Lightning,0.1,A,36.04264,-112.10194,AZ
238621,NPS,Grand Canyon National Park,FATHER,1993,Lightning,0.3,B,36.04791,-112.06389,AZ
238622,NPS,Grand Canyon National Park,CACTUS,1993,Campfire,0.1,A,36.07319,-112.04445,AZ
238623,NPS,Grand Canyon National Park,ROAMING,1993,Campfire,0.1,A,36.03986,-111.81667,AZ
238624,NPS,Grand Canyon National Park,MIRACLE,1993,Campfire,0.1,A,36.04792,-112.18334,AZ
238625,NPS,Grand Canyon National Park,PICKLEHEAD,1993,Campfire,0.1,A,36.01486,-112.18333,AZ
238626,NPS,Grand Canyon National Park,PUNKINHEAD,1993,Campfire,0.1,A,36.03153,-112.15,AZ
238627,NPS,Grand Canyon National Park,MATHER,1993,Campfire,0.1,A,36.04263,-112.11389,AZ
238628,NPS,Grand Canyon National Park,JUNIPER120,1993,Campfire,0.1,A,36.04153,-112.11166,AZ
238629,NPS,Grand Canyon National Park,JUNIPER181,1993,Campfire,0.1,A,36.04153,-112.11166,AZ
238630,NPS,Grand Canyon National Park,OAK207,1993,Campfire,0.1,A,36.04443,-112.11267,AZ
238631,NPS,Grand Canyon National Park,PINE268,1993,Campfire,0.1,A,36.04152,-112.11111,AZ
238632,NPS,Grand Canyon National Park,GRAVEL,1993,Campfire,0.1,A,36.04819,-112.18334,AZ
238633,NPS,Grand Canyon National Park,CLINIC-2,1993,Campfire,0.1,A,36.0593,-112.2,AZ
238634,NPS,Grand Canyon National Park,CLINIC-1,1993,Campfire,0.1,A,36.04819,-112.2,AZ
238635,NPS,Grand Canyon National Park,JUNIPER138,1993,Campfire,0.1,A,36.04152,-112.12834,AZ
238636,NPS,Grand Canyon National Park,ROAD,1993,Campfire,7.0,B,36.0,-112.2174,AZ
238637,NPS,Grand Canyon National Park,ENTRANCE,1993,Campfire,0.1,A,35.99653,-112.12834,AZ
238638,NPS,Grand Canyon National Park,SALTSHAKER,1993,Campfire,0.1,A,35.99653,-112.12834,AZ
238639,NPS,Grand Canyon National Park,WASH,1993,Campfire,0.1,A,35.99653,-112.12834,AZ
238640,NPS,Grand Canyon National Park,LOOP,1993,Campfire,0.1,A,35.99653,-112.12834,AZ
238641,NPS,Grand Canyon National Park,DRIVEUP,1993,Campfire,0.1,A,36.03153,-112.08333,AZ
238642,NPS,Grand Canyon National Park,PICNICRING,1993,Campfire,0.1,A,36.0482,-112.08334,AZ
238643,NPS,Grand Canyon National Park,JUNIPER125,1993,Campfire,0.1,A,36.03153,-112.1,AZ
238644,NPS,Grand Canyon National Park,HEARST,1993,Campfire,0.1,A,35.98152,-111.98334,AZ
238645,NPS,Grand Canyon National Park,WHEREAREU,1993,Smoking,0.1,A,36.06486,-112.1,AZ
238646,NPS,Grand Canyon National Park,WIDFORSS,1993,Campfire,0.1,A,36.19818,-112.1,AZ
238647,NPS,Grand Canyon National Park,BASIN,1993,Campfire,0.2,A,36.28152,-112.08334,AZ
238648,NPS,Grand Canyon National Park,BOOT,1993,Smoking,0.1,A,36.06986,-112.11166,AZ
238649,NPS,Grand Canyon National Park,LUAU,1993,Campfire,0.1,A,36.05486,-112.075,AZ
238650,NPS,Grand Canyon National Park,WRANGLER2,1993,Campfire,0.1,A,36.05486,-112.075,AZ
238651,NPS,Grand Canyon National Park,IMAX,1993,Campfire,0.2,A,35.95,-112.1174,AZ
238652,NPS,Grand Canyon National Park,WOODROW,1993,Lightning,0.1,A,36.02652,-112.165,AZ
238653,NPS,Grand Canyon National Park,LINDBERGH,1993,Lightning,0.2,A,36.28485,-112.10001,AZ
238654,NPS,Grand Canyon National Park,SWAMP,1993,Lightning,0.1,A,36.34319,-112.26001,AZ
238655,NPS,Grand Canyon National Park,GUINIVERE,1993,Lightning,0.2,A,36.32985,-112.27833,AZ
238656,NPS,Grand Canyon National Park,MORAN,1993,Lightning,0.1,A,35.99708,-111.91556,AZ
238657,NPS,Grand Canyon National Park,GRANDVIEW,1993,Lightning,0.1,A,35.98319,-111.93333,AZ
238658,NPS,Grand Canyon National Park,KANABOW,1993,Lightning,0.8,B,36.26985,-112.20667,AZ
238659,NPS,Grand Canyon National Park,GREENLAND,1993,Lightning,0.1,A,36.23152,-112.01667,AZ
238660,NPS,Grand Canyon National Park,SPRING,1993,Lightning,0.7,B,36.32985,-112.225,AZ
238661,NPS,Grand Canyon National Park,SHIP,1993,Lightning,0.1,A,35.9832,-111.96833,AZ
238662,NPS,Grand Canyon National Park,MARIA,1993,Lightning,0.1,A,36.05486,-112.2,AZ
238663,NPS,Grand Canyon National Park,MILKCREEK,1993,Lightning,0.1,A,36.26485,-112.11667,AZ
238664,NPS,Grand Canyon National Park,MEADOW,1993,Campfire,0.1,A,36.19985,-112.095,AZ
238665,NPS,Grand Canyon National Park,ATOKO,1993,Lightning,0.2,A,36.19985,-111.95167,AZ
238666,NPS,Grand Canyon National Park,DRIP,1993,Lightning,0.1,A,36.05486,-112.23666,AZ
238667,NPS,Grand Canyon National Park,TUWEEP,1993,Campfire,0.1,A,36.21152,-113.06501,AZ
238668,NPS,Grand Canyon National Park,WILLIS,1993,Campfire,0.1,A,36.22652,-113.065,AZ
238669,NPS,Grand Canyon National Park,MCARTHUR,1993,Campfire,0.1,A,36.21152,-113.06501,AZ
238670,NPS,Grand Canyon National Park,CANNON,1993,Campfire,0.1,A,36.22652,-113.065,AZ
238671,NPS,Grand Canyon National Park,INDIAN,1993,Campfire,0.1,A,36.06986,-112.12833,AZ
238672,NPS,Grand Canyon National Park,GARDEN,1993,Miscellaneous,7.5,B,36.08152,-112.13334,AZ
238673,NPS,Grand Canyon National Park,PORKCHOP,1993,Lightning,0.1,A,36.29985,-112.18833,AZ
238674,NPS,Grand Canyon National Park,BOUNDARY,1993,Lightning,0.1,A,36.34319,-112.22639,AZ
238675,NPS,Grand Canyon National Park,NORTHWEST3,1993,Debris Burning,1000.0,F,36.33152,-112.25,AZ
238676,NPS,Grand Canyon National Park,WOOD,1994,Campfire,0.1,A,36.01152,-111.96833,AZ
238677,NPS,Grand Canyon National Park,MCCARY,1994,Campfire,0.1,A,36.01152,-111.96833,AZ
238678,NPS,Grand Canyon National Park,CASHMAN,1994,Campfire,0.1,A,36.7315,-111.66667,AZ
238679,NPS,Grand Canyon National Park,GHOST,1994,Miscellaneous,0.1,A,35.7833,-114.4675,AZ
238680,NPS,Grand Canyon National Park,FRIEBEN,1994,Campfire,0.1,A,36.04153,-112.11166,AZ
238681,NPS,Grand Canyon National Park,PUB,1994,Structure,0.1,A,36.05486,-112.14667,AZ
238682,NPS,Grand Canyon National Park,SMITH,1994,Campfire,0.1,A,35.8117,-111.6507,AZ
238683,NPS,Grand Canyon National Park,ZENOBI,1994,Campfire,0.1,A,35.99708,-112.04,AZ
238684,NPS,Grand Canyon National Park,MCMILLAN,1994,Campfire,0.1,A,36.80818,-111.65,AZ
238685,NPS,Grand Canyon National Park,ORTON,1994,Campfire,0.1,A,36.76484,-111.66834,AZ
238686,NPS,Grand Canyon National Park,RING,1994,Campfire,0.1,A,36.02652,-112.18334,AZ
238687,NPS,Grand Canyon National Park,COLLINS,1994,Campfire,0.1,A,36.09819,-112.095,AZ
238688,NPS,Grand Canyon National Park,PULLEY,1994,Campfire,0.1,A,36.09819,-112.09333,AZ
238689,NPS,Grand Canyon National Park,JESSOP,1994,Campfire,0.1,A,36.77984,-111.65,AZ
238690,NPS,Grand Canyon National Park,SILVA,1994,Campfire,0.1,A,36.04819,-112.11666,AZ
238691,NPS,Grand Canyon National Park,PRICE,1994,Campfire,0.1,A,36.03153,-112.18333,AZ
238692,NPS,Grand Canyon National Park,BA TRAIL,1994,Campfire,0.1,A,36.06485,-112.13333,AZ
238693,NPS,Grand Canyon National Park,MATHER 22,1994,Campfire,0.1,A,36.03152,-112.13333,AZ
238694,NPS,Grand Canyon National Park,TANK,1994,Miscellaneous,0.2,A,36.03153,-112.14167,AZ
238695,NPS,Grand Canyon National Park,KLAPARDA,1994,Campfire,0.1,A,36.0482,-112.08334,AZ
238696,NPS,Grand Canyon National Park,OPS,1994,Lightning,0.1,A,36.04819,-112.15,AZ
238697,NPS,Grand Canyon National Park,DEER CREEK,1994,Debris Burning,0.1,A,36.38985,-112.50416,AZ
238698,NPS,Grand Canyon National Park,TANK #2,1994,Miscellaneous,0.1,A,36.04819,-112.11666,AZ
238699,NPS,Grand Canyon National Park,PEARRE,1994,Debris Burning,0.2,A,36.39819,-112.51667,AZ
238700,NPS,Grand Canyon National Park,ROWSER,1994,Miscellaneous,0.1,A,36.04819,-112.11666,AZ
238701,NPS,Grand Canyon National Park,TANK #3,1994,Miscellaneous,0.1,A,36.04819,-112.11666,AZ
238702,NPS,Grand Canyon National Park,HEWITT,1994,Campfire,0.1,A,35.96486,-111.96666,AZ
238703,NPS,Grand Canyon National Park,KEATING,1994,Campfire,0.1,A,36.8333,-111.6674,AZ
238704,NPS,Grand Canyon National Park,ROWSER #2,1994,Miscellaneous,0.1,A,36.04819,-112.11666,AZ
238705,NPS,Grand Canyon National Park,TRAILER,1994,Miscellaneous,0.2,A,36.04819,-112.125,AZ
238706,NPS,Grand Canyon National Park,YAVAPAI,1994,Miscellaneous,0.2,A,36.04819,-112.11666,AZ
238707,NPS,Grand Canyon National Park,ROWSER #3,1994,Miscellaneous,0.1,A,36.04819,-112.13334,AZ
238708,NPS,Grand Canyon National Park,NINTH,1994,Miscellaneous,0.1,A,36.04819,-112.11666,AZ
238709,NPS,Grand Canyon National Park,BUNKHOUSE,1994,Smoking,0.1,A,36.09819,-112.09167,AZ
238710,NPS,Grand Canyon National Park,DEER,1994,Debris Burning,95.0,C,36.4179,-112.5,AZ
238711,NPS,Grand Canyon National Park,PAYA,1994,Campfire,0.1,A,36.03153,-112.15,AZ
238712,NPS,Grand Canyon National Park,LIGHT,1994,Campfire,0.1,A,36.09819,-112.1,AZ
238713,NPS,Grand Canyon National Park,ELEPHANT,1994,Lightning,0.1,A,36.33152,-112.16666,AZ
238714,NPS,Grand Canyon National Park,SWEETWATER,1994,Lightning,0.2,A,36.04819,-112.18334,AZ
238715,NPS,Grand Canyon National Park,HERMIT,1994,Lightning,0.1,A,36.04819,-112.21667,AZ
238716,NPS,Grand Canyon National Park,ENTRANCE,1994,Lightning,0.6,B,36.01486,-112.11667,AZ
238717,NPS,Grand Canyon National Park,GRAVIL PIT,1994,Lightning,3.0,B,36.04819,-112.18334,AZ
238718,NPS,Grand Canyon National Park,EREMITA,1994,Lightning,0.1,A,36.04819,-112.25,AZ
238719,NPS,Grand Canyon National Park,GARAGE,1994,Smoking,0.1,A,36.04819,-112.13334,AZ
238720,NPS,Grand Canyon National Park,YUMA,1994,Lightning,0.1,A,36.11486,-112.36667,AZ
238721,NPS,Grand Canyon National Park,MESCALERO,1994,Lightning,0.1,A,36.16486,-112.48333,AZ
238722,NPS,Grand Canyon National Park,MORAN,1994,Campfire,0.1,A,35.9982,-111.93333,AZ
238723,NPS,Grand Canyon National Park,SIGN,1994,Campfire,0.1,A,35.99819,-112.13333,AZ
238724,NPS,Grand Canyon National Park,SIDE,1994,Campfire,0.1,A,36.04819,-112.2,AZ
238725,NPS,Grand Canyon National Park,POST,1994,Campfire,0.1,A,36.04819,-112.2,AZ
238726,NPS,Grand Canyon National Park,TELE,1994,Campfire,0.1,A,36.04819,-112.2,AZ
238727,NPS,Grand Canyon National Park,PHONE,1994,Campfire,0.1,A,36.04819,-112.2,AZ
238728,NPS,Grand Canyon National Park,RAIL,1994,Campfire,0.1,A,36.04819,-112.2,AZ
238729,NPS,Grand Canyon National Park,TIE,1994,Campfire,0.1,A,36.04819,-112.2,AZ
238730,NPS,Grand Canyon National Park,CHAR,1994,Campfire,0.1,A,36.16485,-112.11667,AZ
238731,NPS,Grand Canyon National Park,SKY,1994,Campfire,0.1,A,36.16485,-112.11667,AZ
238732,NPS,Grand Canyon National Park,ACE,1994,Campfire,0.1,A,36.16485,-112.11667,AZ
238733,NPS,Grand Canyon National Park,PICK,1994,Campfire,0.1,A,36.16485,-112.11667,AZ
238734,NPS,Grand Canyon National Park,ROPE,1994,Campfire,0.1,A,36.16485,-112.11667,AZ
238735,NPS,Grand Canyon National Park,BREW,1994,Campfire,0.1,A,36.16485,-112.11667,AZ
238736,NPS,Grand Canyon National Park,LOT,1994,Campfire,0.1,A,35.99819,-112.13333,AZ
238737,NPS,Grand Canyon National Park,ROWE WELL,1994,Lightning,0.1,A,36.03153,-112.18333,AZ
238738,NPS,Grand Canyon National Park,TIYO POINT,1994,Lightning,0.1,A,36.33152,-112.1,AZ
238739,NPS,Grand Canyon National Park,SADDLE,1994,Lightning,0.1,A,36.21486,-113.05,AZ
238740,NPS,Grand Canyon National Park,VULCAN,1994,Lightning,0.1,A,36.19819,-113.05,AZ
238741,NPS,Grand Canyon National Park,GRANDVIEW,1994,Lightning,1.0,B,35.98152,-111.98334,AZ
238742,NPS,Grand Canyon National Park,STEEP,1994,Lightning,0.1,A,36.03986,-111.83333,AZ
238743,NPS,Grand Canyon National Park,DV,1994,Lightning,0.1,A,36.04819,-112.0,AZ
238744,NPS,Grand Canyon National Park,JOHNSON,1994,Campfire,0.1,A,36.09819,-112.08333,AZ
238745,NPS,Grand Canyon National Park,BACG,1994,Campfire,0.1,A,36.08152,-112.09167,AZ
238746,NPS,Grand Canyon National Park,BASIN,1994,Lightning,0.2,A,36.26485,-112.11667,AZ
238747,NPS,Grand Canyon National Park,BASE,1994,Campfire,0.1,A,36.04819,-112.15,AZ
238748,NPS,Grand Canyon National Park,SPRING,1994,Lightning,0.1,A,36.31485,-112.21666,AZ
238749,NPS,Grand Canyon National Park,LONG JIM,1994,Lightning,0.7,B,35.9982,-112.08333,AZ
238750,NPS,Grand Canyon National Park,COUGAR,1994,Lightning,0.1,A,36.33332,-112.05073,AZ
238751,NPS,Grand Canyon National Park,SCENIC,1994,Lightning,0.1,A,36.24819,-112.23334,AZ
238752,NPS,Grand Canyon National Park,HADES,1994,Lightning,0.2,A,36.26485,-112.08334,AZ
238753,NPS,Grand Canyon National Park,LOG,1994,Campfire,0.1,A,36.04819,-112.1,AZ
238754,NPS,Grand Canyon National Park,BUDDAH,1994,Lightning,0.1,A,36.24819,-112.11667,AZ
238755,NPS,Grand Canyon National Park,SWAMP,1994,Lightning,0.1,A,36.33152,-112.31667,AZ
238756,NPS,Grand Canyon National Park,TIYO POINT,1994,Lightning,0.2,A,36.18152,-112.13333,AZ
238757,NPS,Grand Canyon National Park,THOMPSON,1994,Lightning,0.5,B,36.26485,-112.05,AZ
238758,NPS,Grand Canyon National Park,VISITOR,1994,Lightning,0.1,A,36.28152,-112.0,AZ
238759,NPS,Grand Canyon National Park,WIDFORSS,1994,Lightning,0.1,A,36.21485,-112.08334,AZ
238760,NPS,Grand Canyon National Park,KANABOWNIT,1994,Lightning,0.1,A,36.24819,-112.21666,AZ
238761,NPS,Grand Canyon National Park,IMPERIAL,1994,Lightning,0.1,A,36.28152,-111.98334,AZ
238762,NPS,Grand Canyon National Park,ZAHN,1994,Campfire,0.1,A,36.00653,-112.075,AZ
238763,NPS,Grand Canyon National Park,BONE,1994,Lightning,0.1,A,36.24818,-112.2,AZ
238764,NPS,Grand Canyon National Park,HONAN,1994,Lightning,3.8,B,36.11485,-111.98333,AZ
238765,NPS,Grand Canyon National Park,ROAR,1994,Campfire,0.1,A,36.19819,-112.05,AZ
238766,NPS,Grand Canyon National Park,CASTLE,1994,Lightning,0.1,A,36.34819,-112.3,AZ
238767,NPS,Grand Canyon National Park,LANCELOT,1994,Lightning,0.1,A,36.31485,-112.25,AZ
238768,NPS,Grand Canyon National Park,COCONINO,1994,Lightning,0.1,A,36.03152,-111.83333,AZ
238769,NPS,Grand Canyon National Park,BONNER,1994,Miscellaneous,0.1,A,36.06486,-112.20834,AZ
238770,NPS,Grand Canyon National Park,PARK,1994,Lightning,0.1,A,36.29819,-111.96667,AZ
238771,NPS,Grand Canyon National Park,GALLON,1994,Campfire,0.1,A,36.8833,-111.8341,AZ
238772,NPS,Grand Canyon National Park,RIDGE,1994,Lightning,0.1,A,36.33152,-112.23333,AZ
238773,NPS,Grand Canyon National Park,CRYSTAL,1994,Lightning,0.1,A,36.27318,-112.17084,AZ
238774,NPS,Grand Canyon National Park,RICE,1994,Campfire,0.1,A,36.04819,-112.13334,AZ
238775,NPS,Grand Canyon National Park,MOHAVE,1994,Lightning,0.1,A,36.04819,-112.16667,AZ
238776,NPS,Grand Canyon National Park,WALDRON,1994,Lightning,0.1,A,36.04819,-112.2,AZ
238777,NPS,Grand Canyon National Park,SUPAI,1994,Lightning,0.1,A,36.04819,-112.15,AZ
238778,NPS,Grand Canyon National Park,ORTIZ,1994,Campfire,0.1,A,36.01486,-111.98333,AZ
238779,NPS,Grand Canyon National Park,DRAGON,1994,Lightning,0.3,B,36.24819,-112.18333,AZ
238780,NPS,Grand Canyon National Park,BRAMLEY,1994,Campfire,0.1,A,36.04819,-112.11666,AZ
238781,NPS,Grand Canyon National Park,ANGEL,1994,Lightning,0.5,B,36.19819,-112.01666,AZ
238782,NPS,Grand Canyon National Park,GREEN,1994,Lightning,0.1,A,36.0,-112.8341,AZ
238783,NPS,Grand Canyon National Park,BIRD,1994,Lightning,2.0,B,36.95,-112.0674,AZ
238784,NPS,Grand Canyon National Park,SPRUCE,1994,Lightning,0.1,A,36.33152,-112.13333,AZ
238785,NPS,Grand Canyon National Park,RAIN,1994,Lightning,0.1,A,36.01486,-112.11667,AZ
238786,NPS,Grand Canyon National Park,TRINITY,1994,Lightning,0.1,A,36.24819,-112.11667,AZ
238787,NPS,Grand Canyon National Park,GRAPEVINE,1994,Lightning,0.6,B,35.98152,-112.06666,AZ
238788,NPS,Grand Canyon National Park,CAN,1994,Campfire,0.1,A,36.04819,-112.16667,AZ
238789,NPS,Grand Canyon National Park,DUMP,1994,Campfire,0.1,A,36.04819,-112.16667,AZ
238790,NPS,Grand Canyon National Park,WARMING,1994,Campfire,0.1,A,36.04819,-112.16667,AZ
238791,NPS,Grand Canyon National Park,GLOBAL,1994,Campfire,0.1,A,36.04819,-112.16667,AZ
238792,NPS,Grand Canyon National Park,GAIA,1994,Campfire,0.1,A,36.04819,-112.16667,AZ
238793,NPS,Grand Canyon National Park,PRODUCT,1994,Campfire,0.1,A,36.04819,-112.16667,AZ
238794,NPS,Grand Canyon National Park,SNAG,1994,Lightning,0.1,A,36.28152,-112.17501,AZ
238795,NPS,Grand Canyon National Park,HANCE CPLX,1994,Arson,4.7,B,36.01486,-111.95,AZ
238796,NPS,Grand Canyon National Park,GREENLAND,1994,Lightning,0.3,B,36.23152,-111.98333,AZ
238797,NPS,Grand Canyon National Park,LISOWSKI,1995,Campfire,0.1,A,36.08442,-112.12736,AZ
238798,NPS,Grand Canyon National Park,RIVER8,1995,Campfire,0.1,A,36.77038,-111.65439,AZ
238799,NPS,Grand Canyon National Park,RIVER11,1995,Campfire,0.1,A,36.73771,-111.69331,AZ
238800,NPS,Grand Canyon National Park,PAPAGO,1995,Campfire,0.1,A,36.03634,-111.83253,AZ
238801,NPS,Grand Canyon National Park,ASPEN51,1995,Campfire,0.1,A,36.0469,-112.11911,AZ
238802,NPS,Grand Canyon National Park,PINE315,1995,Campfire,0.1,A,36.04738,-112.11662,AZ
238803,NPS,Grand Canyon National Park,PINE266,1995,Campfire,0.1,A,36.04737,-112.11729,AZ
238804,NPS,Grand Canyon National Park,BADGER,1995,Campfire,0.1,A,36.77216,-111.65777,AZ
238805,NPS,Grand Canyon National Park,PINE287,1995,Campfire,0.1,A,36.04937,-112.11543,AZ
238806,NPS,Grand Canyon National Park,TUCKUP,1995,Campfire,0.1,A,36.28794,-112.86518,AZ
238807,NPS,Grand Canyon National Park,BIRDSEYE,1995,Lightning,0.1,A,36.14819,-112.16667,AZ
238808,NPS,Grand Canyon National Park,RED CANYON,1995,Debris Burning,2.0,B,36.0482,-111.93333,AZ
238809,NPS,Grand Canyon National Park,PHANTOM,1995,Campfire,0.1,A,36.10058,-112.09422,AZ
238810,NPS,Grand Canyon National Park,TOWAGO,1995,Lightning,0.1,A,36.28152,-112.66667,AZ
238811,NPS,Grand Canyon National Park,ASPEN34,1995,Campfire,0.1,A,36.04751,-112.12128,AZ
238812,NPS,Grand Canyon National Park,MATHER,1995,Campfire,0.1,A,36.04769,-112.11718,AZ
238813,NPS,Grand Canyon National Park,JACKASS,1995,Campfire,0.1,A,36.25788,-112.20773,AZ
238814,NPS,Grand Canyon National Park,SYPHER,1995,Campfire,0.1,A,36.05151,-112.14232,AZ
238815,NPS,Grand Canyon National Park,HEARST,1995,Campfire,0.1,A,35.98189,-111.99834,AZ
238816,NPS,Grand Canyon National Park,MATHER133,1995,Campfire,0.1,A,36.04437,-112.12013,AZ
238817,NPS,Grand Canyon National Park,COBBLER,1995,Campfire,0.1,A,36.04041,-112.11008,AZ
238818,NPS,Grand Canyon National Park,BUGGELN,1995,Miscellaneous,0.1,A,35.98052,-111.94201,AZ
238819,NPS,Grand Canyon National Park,SHOSHONE,1995,Campfire,0.1,A,36.04258,-112.05852,AZ
238820,NPS,Grand Canyon National Park,DRAW,1995,Lightning,0.1,A,35.99155,-112.11389,AZ
238821,NPS,Grand Canyon National Park,WINDYPINES,1995,Campfire,0.1,A,35.9972,-112.09306,AZ
238822,NPS,Grand Canyon National Park,PARTY,1995,Campfire,0.1,A,36.01485,-112.01667,AZ
238823,NPS,Grand Canyon National Park,CASTOR,1995,Lightning,0.1,A,36.12319,-112.31667,AZ
238824,NPS,Grand Canyon National Park,MOLLIE'S,1995,Lightning,75.0,C,36.08986,-113.36667,AZ
238825,NPS,Grand Canyon National Park,LAME,1995,Lightning,98.0,C,36.13153,-113.86666,AZ
238826,NPS,Grand Canyon National Park,SANUP,1995,Lightning,193.0,D,36.11485,-113.86667,AZ
238827,NPS,Grand Canyon National Park,BRIGHTY,1995,Lightning,0.3,B,36.28152,-112.05,AZ
238828,NPS,Grand Canyon National Park,MYSTERY2,1995,Lightning,0.1,A,36.02625,-112.19222,AZ
238829,NPS,Grand Canyon National Park,DRAGON,1995,Lightning,0.1,A,36.25818,-112.13139,AZ
238830,NPS,Grand Canyon National Park,MAPLE200,1995,Campfire,0.1,A,36.04704,-112.11428,AZ
238831,NPS,Grand Canyon National Park,ASPEN 12,1995,Campfire,0.1,A,36.04689,-112.1205,AZ
238832,NPS,Grand Canyon National Park,FLAG,1995,Campfire,0.1,A,36.02808,-112.18323,AZ
238833,NPS,Grand Canyon National Park,QUARRY,1995,Campfire,0.1,A,36.28152,-112.08334,AZ
238834,NPS,Grand Canyon National Park,RAIN,1995,Lightning,0.1,A,36.01486,-112.13889,AZ
238835,NPS,Grand Canyon National Park,HARVEY,1995,Campfire,0.1,A,36.21152,-112.06334,AZ
238836,NPS,Grand Canyon National Park,GERMAN,1995,Campfire,0.1,A,36.25652,-112.1,AZ
238837,NPS,Grand Canyon National Park,VILLAGE,1995,Arson,0.2,A,36.04819,-112.1125,AZ
238838,NPS,Grand Canyon National Park,CEDAR MTN.,1995,Lightning,1.0,B,36.04347,-111.78526,AZ
238839,NPS,Grand Canyon National Park,MATTHES,1995,Lightning,1000.0,F,36.16485,-111.98333,AZ
238840,NPS,Grand Canyon National Park,P-LINE,1995,Lightning,0.1,A,35.98986,-112.05695,AZ
238841,NPS,Grand Canyon National Park,DUCK,1995,Lightning,0.1,A,36.00816,-112.06674,AZ
238842,NPS,Grand Canyon National Park,GROUSE,1995,Lightning,0.1,A,35.99764,-112.08333,AZ
238843,NPS,Grand Canyon National Park,BEDIVERE,1995,Lightning,1.5,B,36.23389,-112.23688,AZ
238844,NPS,Grand Canyon National Park,OUTLET,1995,Lightning,1.0,B,36.2143,-112.12054,AZ
238845,NPS,Grand Canyon National Park,MESA,1995,Lightning,0.1,A,36.6667,-111.9757,AZ
238846,NPS,Grand Canyon National Park,HANDY,1995,Lightning,0.5,B,35.97708,-111.98556,AZ
238847,NPS,Grand Canyon National Park,NEW WATER,1995,Lightning,574.0,E,36.01461,-113.96088,AZ
238848,NPS,Grand Canyon National Park,JICARILLA,1995,Lightning,0.3,B,36.21485,-112.32111,AZ
238849,NPS,Grand Canyon National Park,MATTHES,1995,Lightning,336.0,E,36.16485,-111.98333,AZ
238850,NPS,Grand Canyon National Park,SINKING,1995,Miscellaneous,0.1,A,35.97872,-111.96636,AZ
238851,NPS,Grand Canyon National Park,YAVAPAI,1995,Powerline,0.1,A,36.05249,-112.11885,AZ
238852,NPS,Grand Canyon National Park,MONSOON,1995,Lightning,0.5,B,36.23513,-112.09222,AZ
238853,NPS,Grand Canyon National Park,MIDDLE,1995,Lightning,0.1,A,36.00279,-112.06663,AZ
238854,NPS,Grand Canyon National Park,SAFFRON,1995,Lightning,0.1,A,36.32874,-112.31139,AZ
238855,NPS,Grand Canyon National Park,120,1995,Lightning,0.1,A,36.26845,-112.33011,AZ
238856,NPS,Grand Canyon National Park,FIRE POINT,1995,Lightning,0.5,B,36.35846,-112.34889,AZ
238857,NPS,Grand Canyon National Park,WALLA,1995,Lightning,0.1,A,36.23152,-112.21666,AZ
238858,NPS,Grand Canyon National Park,HINDU,1995,Lightning,38.0,C,36.24511,-112.21536,AZ
238859,NPS,Grand Canyon National Park,TOWER,1995,Lightning,0.1,A,36.0689,-112.15207,AZ
238860,NPS,Grand Canyon National Park,HOPI,1995,Lightning,0.1,A,36.06886,-112.15212,AZ
238861,NPS,Grand Canyon National Park,LITTLE,1995,Lightning,0.7,B,36.2779,-112.12611,AZ
238862,NPS,Grand Canyon National Park,ENTRANCE,1995,Lightning,0.1,A,36.0332,-111.83055,AZ
238863,NPS,Grand Canyon National Park,STRAIGHT,1995,Lightning,0.1,A,36.05709,-111.77351,AZ
238864,NPS,Grand Canyon National Park,RIM,1995,Lightning,0.1,A,36.05505,-112.18134,AZ
238865,NPS,Grand Canyon National Park,GROUPSITE,1995,Lightning,0.1,A,36.02244,-111.97208,AZ
238866,NPS,Grand Canyon National Park,YAVAPAI PT,1995,Smoking,0.1,A,36.07158,-112.11202,AZ
238867,NPS,Grand Canyon National Park,ROBBER,1995,Lightning,5.2,B,36.26735,-112.11833,AZ
238868,NPS,Grand Canyon National Park,O-SPRING,1995,Lightning,4.5,B,36.22097,-112.11639,AZ
238869,NPS,Grand Canyon National Park,WESTERN,1995,Arson,0.1,A,36.05577,-112.11563,AZ
238870,NPS,Grand Canyon National Park,RANGE RD.,1995,Campfire,0.1,A,36.04263,-112.08334,AZ
238871,NPS,Grand Canyon National Park,YAKI,1995,Campfire,0.1,A,36.04819,-112.07778,AZ
238872,NPS,Grand Canyon National Park,VANDERGRAF,1996,Campfire,0.1,A,36.09819,-112.085,AZ
238873,NPS,Grand Canyon National Park,PHANTOM,1996,Campfire,0.1,A,36.11485,-112.01666,AZ
238874,NPS,Grand Canyon National Park,FURBUSH,1996,Campfire,0.1,A,36.20041,-111.90055,AZ
238875,NPS,Grand Canyon National Park,LUONGO,1996,Smoking,0.1,A,36.0493,-112.13555,AZ
238876,NPS,Grand Canyon National Park,TRANSIENT,1996,Campfire,0.1,A,36.04912,-112.13735,AZ
238877,NPS,Grand Canyon National Park,ESCALANTE,1996,Campfire,0.1,A,36.03319,-111.835,AZ
238878,NPS,Grand Canyon National Park,2MILECORNE,1996,Campfire,0.1,A,36.0657,-112.11861,AZ
238879,NPS,Grand Canyon National Park,HAND,1996,Campfire,0.1,A,36.09819,-112.085,AZ
238880,NPS,Grand Canyon National Park,DOMINY,1996,Equipment Use,0.1,A,36.0332,-111.81833,AZ
238881,NPS,Grand Canyon National Park,1.5MILE,1996,Campfire,0.1,A,36.0657,-112.11861,AZ
238882,NPS,Grand Canyon National Park,BOUCHER,1996,Campfire,0.1,A,36.08208,-112.21694,AZ
238883,NPS,Grand Canyon National Park,MCCASLIN,1996,Campfire,0.1,A,36.04931,-112.10195,AZ
238884,NPS,Grand Canyon National Park,SUDDATH,1996,Campfire,0.1,A,36.04931,-112.10195,AZ
238885,NPS,Grand Canyon National Park,FIR #104,1996,Campfire,0.1,A,36.04931,-112.10195,AZ
238886,NPS,Grand Canyon National Park,YAKI,1996,Campfire,0.1,A,36.04931,-112.06805,AZ
238887,NPS,Grand Canyon National Park,CUMMINS,1996,Campfire,0.1,A,36.23319,-113.03584,AZ
238888,NPS,Grand Canyon National Park,PIPECREEK,1996,Campfire,0.1,A,36.23319,-112.08501,AZ
238889,NPS,Grand Canyon National Park,NATOUT#1,1996,Smoking,0.1,A,36.04988,-112.10514,AZ
238890,NPS,Grand Canyon National Park,HANCE,1996,Debris Burning,51.7,C,36.00042,-111.96694,AZ
238891,NPS,Grand Canyon National Park,S ENTRANCE,1996,Miscellaneous,0.1,A,35.99428,-112.11993,AZ
238892,NPS,Grand Canyon National Park,DV #46,1996,Campfire,0.1,A,36.0332,-111.81833,AZ
238893,NPS,Grand Canyon National Park,ROWE WELL,1996,Campfire,0.1,A,36.02258,-112.18221,AZ
238894,NPS,Grand Canyon National Park,LANKFORD,1996,Campfire,0.1,A,36.09819,-112.085,AZ
238895,NPS,Grand Canyon National Park,ASPEN 59,1996,Miscellaneous,0.1,A,36.04746,-112.11755,AZ
238896,NPS,Grand Canyon National Park,MONSMA,1996,Campfire,0.1,A,36.0332,-111.81833,AZ
238897,NPS,Grand Canyon National Park,FIR #82,1996,Campfire,0.1,A,36.04931,-112.10195,AZ
238898,NPS,Grand Canyon National Park,JARRATT,1996,Campfire,0.1,A,36.04931,-112.10195,AZ
238899,NPS,Grand Canyon National Park,TRANSCEPT,1996,Lightning,0.1,A,36.20596,-112.06076,AZ
238900,NPS,Grand Canyon National Park,BRIDGER,1996,Lightning,30.0,C,36.5833,-112.4452,AZ
238901,NPS,Grand Canyon National Park,PIMA,1996,Lightning,0.1,A,36.0595,-112.19107,AZ
238902,NPS,Grand Canyon National Park,SITE 32,1996,Campfire,0.1,A,36.2005,-112.05227,AZ
238903,NPS,Grand Canyon National Park,FARIAS,1996,Campfire,0.1,A,36.20041,-112.05222,AZ
238904,NPS,Grand Canyon National Park,NAT #2,1996,Lightning,0.1,A,36.37794,-112.46391,AZ
238905,NPS,Grand Canyon National Park,BRAHMA,1996,Lightning,0.2,A,36.13218,-112.04,AZ
238906,NPS,Grand Canyon National Park,SAGE 4,1996,Campfire,0.1,A,36.0438,-112.11973,AZ
238907,NPS,Grand Canyon National Park,AB MISC,1996,Lightning,0.1,A,36.08608,-112.20112,AZ
238908,NPS,Grand Canyon National Park,MERLIN,1996,Lightning,0.2,A,36.31652,-112.30056,AZ
238909,NPS,Grand Canyon National Park,DV #23,1996,Campfire,0.1,A,36.0332,-111.81833,AZ
238910,NPS,Grand Canyon National Park,LANCELOT,1996,Lightning,0.2,A,36.31597,-112.26917,AZ
238911,NPS,Grand Canyon National Park,SAGITARIUS,1996,Lightning,26.0,C,36.21485,-112.29723,AZ
238912,NPS,Grand Canyon National Park,FAWN SPRIN,1996,Lightning,0.2,A,36.33661,-112.15523,AZ
238913,NPS,Grand Canyon National Park,CEDAR MTN,1996,Lightning,0.5,B,36.059428,-111.770797,AZ
238914,NPS,Grand Canyon National Park,ELAINE CST,1996,Lightning,0.2,A,36.3239,-112.28802,AZ
238915,NPS,Grand Canyon National Park,DRAGONHEAD,1996,Lightning,0.3,B,36.24877,-112.2182,AZ
238916,NPS,Grand Canyon National Park,THUNDER,1996,Lightning,0.1,A,36.33358,-112.15871,AZ
238917,NPS,Grand Canyon National Park,SOUTH FORK,1996,Lightning,0.1,A,36.33985,-112.175,AZ
238918,NPS,Grand Canyon National Park,PERL,1996,Campfire,0.1,A,36.0493,-112.13555,AZ
238919,NPS,Grand Canyon National Park,EMMA,1996,Lightning,0.2,A,36.29346,-113.15834,AZ
238920,NPS,Grand Canyon National Park,MESA,1996,Lightning,128.0,D,36.33152,-112.5,AZ
238921,NPS,Grand Canyon National Park,JUNIPER,1996,Lightning,0.1,A,36.21669,-112.17143,AZ
238922,NPS,Grand Canyon National Park,BRT ANGEL,1996,Lightning,0.1,A,36.23321,-112.04897,AZ
238923,NPS,Grand Canyon National Park,CHIPS,1996,Equipment Use,0.1,A,36.01928,-112.18201,AZ
238924,NPS,Grand Canyon National Park,BIG SPRING,1996,Lightning,2.0,B,36.31735,-112.21805,AZ
238925,NPS,Grand Canyon National Park,ASPEN #17,1996,Campfire,0.1,A,36.04931,-112.10195,AZ
238926,NPS,Grand Canyon National Park,LONG,1996,Lightning,0.2,A,35.98403,-112.085,AZ
238927,NPS,Grand Canyon National Park,RAINBOW,1996,Lightning,1.0,B,36.31485,-112.31917,AZ
238928,NPS,Grand Canyon National Park,NATURAL #5,1996,Lightning,0.1,A,36.03314,-112.17873,AZ
238929,NPS,Grand Canyon National Park,PIMA CRASH,1996,Equipment Use,0.1,A,36.04819,-112.2,AZ
238930,NPS,Grand Canyon National Park,THOMPSON,1996,Lightning,0.1,A,36.25709,-112.09013,AZ
238931,NPS,Grand Canyon National Park,COFFEE LAK,1996,Lightning,0.1,A,36.30531,-112.14821,AZ
238932,NPS,Grand Canyon National Park,SO SPRINGS,1996,Lightning,0.1,A,36.31362,-112.26121,AZ
238933,NPS,Grand Canyon National Park,LANCELOT 2,1996,Lightning,200.0,D,36.31457,-112.26638,AZ
238934,NPS,Grand Canyon National Park,RANGE RD,1996,Lightning,0.1,A,36.25817,-112.07675,AZ
238935,NPS,Grand Canyon National Park,PONDEROSA,1996,Lightning,0.1,A,36.30811,-112.25897,AZ
238936,NPS,Grand Canyon National Park,DV #36,1996,Campfire,0.1,A,36.0332,-111.81833,AZ
238937,NPS,Grand Canyon National Park,IMPERIAL,1996,Lightning,0.5,B,36.27889,-112.01838,AZ
238938,NPS,Grand Canyon National Park,GREEN,1996,Lightning,0.1,A,36.3352,-112.21213,AZ
238939,NPS,Grand Canyon National Park,STEAMBOAT,1996,Lightning,0.1,A,36.36641,-112.40004,AZ
238940,NPS,Grand Canyon National Park,PHANTOMCRK,1996,Campfire,0.1,A,36.09986,-112.085,AZ
238941,NPS,Grand Canyon National Park,JOHNSON,1996,Campfire,0.1,A,36.09986,-112.085,AZ
238942,NPS,Grand Canyon National Park,CAMPER,1996,Campfire,0.1,A,36.03319,-112.1525,AZ
238943,NPS,Grand Canyon National Park,WHEELER,1996,Lightning,4.0,B,36.27291,-112.40611,AZ
238944,NPS,Grand Canyon National Park,ASPEN 7,1996,Debris Burning,0.1,A,36.04792,-112.11663,AZ
238945,NPS,Grand Canyon National Park,SPRING,1996,Lightning,0.5,B,36.34373,-112.31245,AZ
238946,NPS,Grand Canyon National Park,BOUNDARY,1996,Campfire,0.1,A,36.04435,-112.12356,AZ
238947,NPS,Grand Canyon National Park,DV FIRE,1996,Campfire,0.1,A,35.96577,-111.98192,AZ
238948,NPS,Grand Canyon National Park,RIDGE,1996,Lightning,0.2,A,36.30029,-112.19705,AZ
238949,NPS,Grand Canyon National Park,NATOUT#6,1996,Lightning,0.1,A,35.99819,-112.06667,AZ
238950,NPS,Grand Canyon National Park,TOWER,1996,Lightning,0.2,A,36.30935,-112.24459,AZ
238951,NPS,Grand Canyon National Park,MASWIK6709,1996,Campfire,0.1,A,36.08208,-112.21694,AZ
238952,NPS,Grand Canyon National Park,GRANDVIEW,1996,Lightning,0.1,A,35.96566,-111.9596,AZ
238953,NPS,Grand Canyon National Park,WIDFORSS,1996,Lightning,0.2,A,36.22674,-112.07095,AZ
238954,NPS,Grand Canyon National Park,OUTLET,1996,Lightning,0.1,A,36.22228,-112.11079,AZ
238955,NPS,Grand Canyon National Park,NATOUT7,1996,Lightning,0.1,A,35.96561,-111.95965,AZ
238956,NPS,Grand Canyon National Park,CAMPER 2,1996,Campfire,0.1,A,36.18099,-112.37561,AZ
238957,NPS,Grand Canyon National Park,PASTUREWAS,1996,Campfire,0.1,A,36.11486,-112.28556,AZ
238958,NPS,Grand Canyon National Park,NAT OUT8,1996,Lightning,0.1,A,36.21913,-112.05248,AZ
238959,NPS,Grand Canyon National Park,UNCLE JIM,1996,Lightning,0.2,A,36.21607,-112.03679,AZ
238960,NPS,Grand Canyon National Park,UNCLE JIM2,1996,Lightning,0.1,A,36.21669,-112.0364,AZ
238961,NPS,Grand Canyon National Park,MANZANITA,1996,Lightning,0.1,A,36.19301,-112.01903,AZ
238962,NPS,Grand Canyon National Park,DUTTON,1996,Lightning,2.0,B,36.29818,-112.37472,AZ
238963,NPS,Grand Canyon National Park,ALBRIGHT,1996,Lightning,0.1,A,36.05764,-112.11861,AZ
238964,NPS,Grand Canyon National Park,CHUCK,1996,Campfire,0.1,A,36.0168,-112.1525,AZ
238965,NPS,Grand Canyon National Park,MILLER,1996,Campfire,0.1,A,36.0332,-112.10195,AZ
238966,NPS,Grand Canyon National Park,CASTLE,1996,Lightning,0.1,A,36.33346,-112.28581,AZ
238967,NPS,Grand Canyon National Park,PLANE CRAS,1996,Equipment Use,0.1,A,36.04147,-112.11176,AZ
238968,NPS,Grand Canyon National Park,BEDIVERE,1996,Lightning,1.0,B,36.24958,-112.23501,AZ
238969,NPS,Grand Canyon National Park,OKTOBER,1996,Lightning,12.0,C,36.31485,-112.26639,AZ
238970,NPS,Grand Canyon National Park,BASS,1996,Lightning,11.0,C,36.36457,-112.35,AZ
238971,NPS,Grand Canyon National Park,YAVAPAI,1996,Smoking,0.1,A,36.04931,-112.10195,AZ
238972,NPS,Grand Canyon National Park,TURKEY DRA,1996,Miscellaneous,0.5,B,36.26207,-112.1,AZ
238973,NPS,Grand Canyon National Park,TRAILERBUR,1996,Miscellaneous,0.1,A,36.0482,-112.13306,AZ
238974,NPS,Grand Canyon National Park,TAPEATS,1997,Miscellaneous,0.1,A,36.39013,-112.45195,AZ
238975,NPS,Grand Canyon National Park,DUMP,1997,Children,0.1,A,36.047206,-112.142117,AZ
238976,NPS,Grand Canyon National Park,JUGG,1997,Lightning,0.3,B,36.421094,-112.396853,AZ
238977,NPS,Grand Canyon National Park,PIUTE,1997,Lightning,0.1,A,36.11069,-112.33194,AZ
238978,NPS,Grand Canyon National Park,BEDROCK,1997,Lightning,0.1,A,36.32401,-112.435,AZ
238979,NPS,Grand Canyon National Park,SHINUMO,1997,Lightning,0.1,A,36.33152,-112.28055,AZ
238980,NPS,Grand Canyon National Park,MUAV,1997,Lightning,0.1,A,36.30041,-112.36861,AZ
238981,NPS,Grand Canyon National Park,SHIP,1997,Lightning,0.2,A,35.9793,-111.96167,AZ
238982,NPS,Grand Canyon National Park,YAQUI,1997,Campfire,0.1,A,36.056517,-112.077994,AZ
238983,NPS,Grand Canyon National Park,COCONINO,1997,Miscellaneous,0.2,A,36.05041,-112.14861,AZ
238984,NPS,Grand Canyon National Park,VILLAGE,1997,Campfire,0.1,A,36.0511,-112.1014,AZ
238985,NPS,Grand Canyon National Park,CENTER,1997,Campfire,0.1,A,36.0511,-112.1014,AZ
238986,NPS,Grand Canyon National Park,ROWESWELL,1997,Lightning,0.1,A,36.04186,-112.1567,AZ
238987,NPS,Grand Canyon National Park,BLACKTAIL,1997,Lightning,0.5,B,36.30374,-112.40445,AZ
238988,NPS,Grand Canyon National Park,OUTLET,1997,Lightning,1.5,B,36.18652,-112.10834,AZ
238989,NPS,Grand Canyon National Park,YAVAPAI,1997,Campfire,0.1,A,36.06208,-112.11695,AZ
238990,NPS,Grand Canyon National Park,TUSAYAN,1997,Equipment Use,0.1,A,35.9903,-112.1263,AZ
238991,NPS,Grand Canyon National Park,FA #7,1997,Miscellaneous,0.1,A,36.04847,-112.11417,AZ
238992,NPS,Grand Canyon National Park,PICNIC,1997,Campfire,0.1,A,36.0306,-112.0239,AZ
238993,NPS,Grand Canyon National Park,BETWEEN,1997,Smoking,0.1,A,36.0618,-112.11167,AZ
238994,NPS,Grand Canyon National Park,CAMP,1997,Campfire,0.1,A,36.04764,-112.08695,AZ
238995,NPS,Grand Canyon National Park,ESCAPE,1997,Lightning,0.1,A,36.0432,-112.05778,AZ
238996,NPS,Grand Canyon National Park,WEDDING,1997,Campfire,0.1,A,36.21152,-112.06334,AZ
238997,NPS,Grand Canyon National Park,EDR,1997,Campfire,0.1,A,36.2022,-112.0356,AZ
238998,NPS,Grand Canyon National Park,GRAND,1997,Lightning,0.1,A,35.98855,-111.99094,AZ
238999,NPS,Grand Canyon National Park,YAQUIPICNI,1997,Lightning,0.1,A,36.03486,-112.08056,AZ
239000,NPS,Grand Canyon National Park,EMMA,1997,Lightning,0.1,A,36.25957,-113.14028,AZ
239001,NPS,Grand Canyon National Park,PEAK,1997,Lightning,0.7,B,36.26902,-113.17723,AZ
239002,NPS,Grand Canyon National Park,PIPELINE,1997,Lightning,0.5,B,35.9893,-111.92416,AZ
239003,NPS,Grand Canyon National Park,LIGHTBULB,1997,Lightning,66.0,C,36.22041,-112.11944,AZ
239004,NPS,Grand Canyon National Park,LONG JIM,1997,Lightning,0.5,B,36.01152,-112.075,AZ
239005,NPS,Grand Canyon National Park,HEARST,1997,Lightning,1.5,B,35.9843,-111.99834,AZ
239006,NPS,Grand Canyon National Park,RAPID,1997,Equipment Use,0.1,A,36.044544,-111.920217,AZ
239007,NPS,Grand Canyon National Park,ABYSS,1997,Lightning,90.0,C,36.29834,-112.36194,AZ
239008,NPS,Grand Canyon National Park,CRYSTAL,1997,Lightning,0.3,B,36.28291,-112.16861,AZ
239009,NPS,Grand Canyon National Park,TIPOVER,1997,Lightning,0.1,A,36.3318,-112.24139,AZ
239010,NPS,Grand Canyon National Park,HORSETHIEF,1997,Lightning,0.1,A,36.03792,-112.2275,AZ
239011,NPS,Grand Canyon National Park,BICYCLE,1997,Arson,0.1,A,36.04653,-112.12528,AZ
239012,NPS,Grand Canyon National Park,LAVA,1997,Lightning,0.1,A,36.26402,-113.12806,AZ
239013,NPS,Grand Canyon National Park,BASEBALL,1997,Campfire,0.1,A,36.2017,-112.0583,AZ
239014,NPS,Grand Canyon National Park,SWAMP,1997,Lightning,251.0,D,36.31735,-112.31916,AZ
239015,NPS,Grand Canyon National Park,HAUNTED,1997,Lightning,0.1,A,36.19402,-112.09917,AZ
239016,NPS,Grand Canyon National Park,KOMO,1997,Lightning,0.2,A,36.17041,-112.01945,AZ
239017,NPS,Grand Canyon National Park,FORS,1997,Campfire,0.1,A,36.04819,-112.15,AZ
239018,NPS,Grand Canyon National Park,MATHER42,1998,Campfire,0.1,A,36.04735,-112.11805,AZ
239019,NPS,Grand Canyon National Park,THORSOBC,1998,Campfire,0.1,A,36.00375,-112.03889,AZ
239020,NPS,Grand Canyon National Park,HERMITCK,1998,Campfire,0.1,A,36.08069,-112.21222,AZ
239021,NPS,Grand Canyon National Park,TOPEKA,1998,Missing/Undefined,2532.0,F,36.043314,-112.040719,AZ
239022,NPS,Grand Canyon National Park,BALLFIELD,1998,Campfire,0.1,A,36.2006,-112.0517,AZ
239023,NPS,Grand Canyon National Park,POWERLINE,1998,Miscellaneous,0.2,A,36.0805,-112.3088,AZ
239024,NPS,Grand Canyon National Park,FIREPOINT OBC,1998,Campfire,0.1,A,36.36,-112.35,AZ
239025,NPS,Grand Canyon National Park,STONE FIRE,1998,Miscellaneous,3.0,B,36.3668,-112.44111,AZ
239026,NPS,Grand Canyon National Park,NAT OUT 1,1998,Lightning,0.1,A,36.34366,-112.14453,AZ
239027,NPS,Grand Canyon National Park,ANGEL,1998,Smoking,0.1,A,36.05541,-112.14111,AZ
239028,NPS,Grand Canyon National Park,LOOKOUT,1998,Smoking,0.1,A,36.05541,-112.14111,AZ
239029,NPS,Grand Canyon National Park,KANABOWNIT,1998,Lightning,3.6,B,36.28235,-112.21084,AZ
239030,NPS,Grand Canyon National Park,CRYSTAL,1998,Lightning,4.0,B,36.28152,-112.2,AZ
239031,NPS,Grand Canyon National Park,TAPEATS,1998,Lightning,0.1,A,36.3868,-112.43389,AZ
239032,NPS,Grand Canyon National Park,HORSESHOE,1998,Lightning,0.1,A,36.03152,-111.97138,AZ
239033,NPS,Grand Canyon National Park,SAGITARIUS,1998,Lightning,0.5,B,36.22708,-112.29111,AZ
239034,NPS,Grand Canyon National Park,THUMB1,1998,Lightning,0.5,B,36.32874,-112.51195,AZ
239035,NPS,Grand Canyon National Park,THUMB2,1998,Lightning,0.1,A,36.33735,-112.48778,AZ
239036,NPS,Grand Canyon National Park,THUMB3,1998,Lightning,0.1,A,36.33902,-112.48556,AZ
239037,NPS,Grand Canyon National Park,FULLER,1998,Lightning,0.1,A,36.2542,-112.0494,AZ
239038,NPS,Grand Canyon National Park,GREENLAND,1998,Lightning,0.5,B,36.23486,-112.01667,AZ
239039,NPS,Grand Canyon National Park,MANZANITA,1998,Lightning,0.2,A,36.23041,-111.99723,AZ
239040,NPS,Grand Canyon National Park,LINDBERGH,1998,Lightning,0.4,B,36.28151,-112.06667,AZ
239041,NPS,Grand Canyon National Park,FIELD,1998,Lightning,0.2,A,36.21152,-112.06334,AZ
239042,NPS,Grand Canyon National Park,EAST,1998,Lightning,0.1,A,35.9983,-112.04,AZ
239043,NPS,Grand Canyon National Park,PICNIC,1998,Lightning,0.1,A,36.26596,-112.02333,AZ
239044,NPS,Grand Canyon National Park,ATOKO,1998,Lightning,0.5,B,36.2093,-111.95361,AZ
239045,NPS,Grand Canyon National Park,EMMA,1998,Lightning,76.0,C,36.28485,-113.155,AZ
239046,NPS,Grand Canyon National Park,COTTONWOOD,1998,Campfire,0.2,A,36.09819,-112.09333,AZ
239047,NPS,Grand Canyon National Park,NORTHWEST,1998,Lightning,0.2,A,36.35818,-112.26166,AZ
239048,NPS,Grand Canyon National Park,NR COMPLEX,1998,Lightning,4957.0,F,36.21367,-112.09139,AZ
239049,NPS,Grand Canyon National Park,CASTLE,1998,Lightning,10.0,C,36.33235,-112.31694,AZ
239050,NPS,Grand Canyon National Park,BUCKHORN,1998,Lightning,0.1,A,36.41402,-112.74472,AZ
239051,NPS,Grand Canyon National Park,TIPOVER,1998,Lightning,17.0,C,36.352208,-112.220733,AZ
239052,NPS,Grand Canyon National Park,RAMADA,1998,Campfire,0.1,A,36.03819,-112.175,AZ
239053,NPS,Grand Canyon National Park,NATCHI,1998,Lightning,62.0,C,36.16568,-111.89555,AZ
239054,NPS,Grand Canyon National Park,LANCELOT,1998,Lightning,0.1,A,36.31485,-112.24333,AZ
239055,NPS,Grand Canyon National Park,ROBBERS R,1998,Lightning,0.2,A,36.28485,-112.08167,AZ
239056,NPS,Grand Canyon National Park,KP,1998,Lightning,0.1,A,36.21736,-112.05306,AZ
239057,NPS,Grand Canyon National Park,NOVINGER,1998,Lightning,0.1,A,36.21458,-111.97389,AZ
239058,NPS,Grand Canyon National Park,PITS,1998,Lightning,0.1,A,36.28485,-112.09834,AZ
239059,NPS,Grand Canyon National Park,FRANCOIS,1998,Lightning,0.1,A,36.15652,-111.98333,AZ
239060,NPS,Grand Canyon National Park,MULE,1998,Lightning,0.1,A,36.21152,-112.04667,AZ
239061,NPS,Grand Canyon National Park,MODRED,1998,Lightning,67.0,C,36.31485,-112.24333,AZ
239062,NPS,Grand Canyon National Park,ELK,1998,Miscellaneous,0.1,A,36.05486,-112.11166,AZ
239063,NPS,Grand Canyon National Park,COCONINO,1998,Children,0.1,A,36.05486,-112.14667,AZ
239064,NPS,Grand Canyon National Park,SLUDGE,1998,Campfire,0.1,A,36.0283,-112.1833,AZ
239065,NPS,Grand Canyon National Park,QUARRY,1999,Campfire,0.1,A,36.0356,-112.1619,AZ
239066,NPS,Grand Canyon National Park,BUGGELN,1999,Arson,8.0,B,35.9808,-111.95452,AZ
239067,NPS,Grand Canyon National Park,YAKI,1999,Campfire,0.1,A,36.0543,-112.10473,AZ
239068,NPS,Grand Canyon National Park,MARIA,1999,Lightning,0.1,A,36.04258,-112.21892,AZ
239069,NPS,Grand Canyon National Park,SHINUMO,1999,Lightning,5.4,B,36.32929,-112.28306,AZ
239070,NPS,Grand Canyon National Park,TRITLE,1999,Lightning,0.1,A,36.20152,-111.94944,AZ
239071,NPS,Grand Canyon National Park,TROY,1999,Lightning,4.5,B,36.32985,-112.225,AZ
239072,NPS,Grand Canyon National Park,GRAMA,1999,Lightning,1.0,B,36.21485,-112.195,AZ
239073,NPS,Grand Canyon National Park,OBC#1,1999,Campfire,0.1,A,36.03931,-112.16417,AZ
239074,NPS,Grand Canyon National Park,OBC #2,1999,Campfire,0.1,A,36.2083,-112.0594,AZ
239075,NPS,Grand Canyon National Park,WALLA,1999,Lightning,0.5,B,36.22624,-112.24611,AZ
239076,NPS,Grand Canyon National Park,SAFFRON,1999,Lightning,1.0,B,36.33068,-112.32111,AZ
239077,NPS,Grand Canyon National Park,SOLITUDE,1999,Lightning,0.1,A,36.0343,-111.81112,AZ
239078,NPS,Grand Canyon National Park,OBC#7,1999,Campfire,0.1,A,36.0506,-112.0978,AZ
239079,NPS,Grand Canyon National Park,BRIGHT,1999,Lightning,0.1,A,36.19235,-112.04667,AZ
239080,NPS,Grand Canyon National Park,RIDGE,1999,Lightning,0.1,A,36.335542,-112.266567,AZ
239081,NPS,Grand Canyon National Park,MARBLE,1999,Lightning,0.5,B,36.24328,-112.08253,AZ
239082,NPS,Grand Canyon National Park,REDTAIL,1999,Lightning,81.0,C,36.21875,-112.11583,AZ
239083,NPS,Grand Canyon National Park,BOUNDARY,1999,Lightning,358.0,E,36.35152,-112.34694,AZ
239084,NPS,Grand Canyon National Park,OBC 22,1999,Campfire,0.1,A,36.2167,-112.0667,AZ
239085,NPS,Grand Canyon National Park,CAMELOT,1999,Lightning,1264.0,F,36.30693,-112.25101,AZ
239086,NPS,Grand Canyon National Park,ESCALANTE,1999,Lightning,0.1,A,36.04999,-111.86739,AZ
239087,NPS,Grand Canyon National Park,OBC#23,1999,Campfire,0.1,A,36.02808,-112.18323,AZ
239088,NPS,Navajo National Monument,MONUMENT,1994,Lightning,3.0,B,36.76053,-110.49647,AZ
239089,NPS,Organ Pipe Cactus National Monument,MM74,1992,Smoking,0.2,A,31.96994,-112.80496,AZ
239090,NPS,Organ Pipe Cactus National Monument,OVERT,1998,Arson,19.6,C,31.87194,-112.78834,AZ
239091,NPS,Organ Pipe Cactus National Monument,MILE 60.5,1998,Miscellaneous,0.3,B,32.16248,-112.76924,AZ
239092,NPS,Organ Pipe Cactus National Monument,MARTIN,1999,Debris Burning,0.2,A,31.8631,-112.7594,AZ
239093,NPS,Organ Pipe Cactus National Monument,ARMENTA,1999,Miscellaneous,0.2,A,32.19856,-112.86464,AZ
239094,NPS,Organ Pipe Cactus National Monument,MILE 67.7,1999,Arson,0.2,A,32.05694,-112.79139,AZ
239095,NPS,Petrified Forest National Park,NONAME,1993,Equipment Use,0.1,A,35.16666,-109.66667,AZ
239096,NPS,Petrified Forest National Park,SANTA FE,1993,Railroad,3.0,B,35.0667,-109.75,AZ
239097,NPS,Petrified Forest National Park,NINEMILE,1995,Miscellaneous,2.0,B,34.99999,-109.75,AZ
239098,NPS,Saguaro National Park,SYCAMORE,1992,Lightning,3.5,B,32.18674,-110.52876,AZ
239099,NPS,Saguaro National Park,RINCON WST,1992,Lightning,0.1,A,32.11257,-110.57631,AZ
239100,NPS,Saguaro National Park,LUCKY,1992,Lightning,11.0,C,32.21642,-110.57615,AZ
239101,NPS,Saguaro National Park,BEE,1992,Lightning,0.1,A,32.21736,-110.56285,AZ
239102,NPS,Saguaro National Park,BILL,1992,Lightning,1.0,B,32.18253,-110.69203,AZ
239103,NPS,Saguaro National Park,SUBURBAN,1993,Equipment Use,0.1,A,32.29642,-111.21682,AZ
239104,NPS,Saguaro National Park,SPUD ROCK,1993,Campfire,244.0,D,32.20432,-110.53031,AZ
239105,NPS,Saguaro National Park,MICA,1993,Lightning,0.5,B,32.22899,-110.54029,AZ
239106,NPS,Saguaro National Park,BOUNDARY,1993,Miscellaneous,5.0,B,32.23426,-110.6729,AZ
239107,NPS,Saguaro National Park,PISTOL,1993,Lightning,459.0,E,32.11701,-110.58245,AZ
239108,NPS,Saguaro National Park,BROADWAY,1994,Miscellaneous,0.2,A,32.22014,-110.72111,AZ
239109,NPS,Saguaro National Park,5TH STREET,1994,Miscellaneous,0.2,A,32.22736,-110.71998,AZ
239110,NPS,Saguaro National Park,MOTHERS DY,1994,Equipment Use,1200.0,F,32.18167,-110.69748,AZ
239111,NPS,Saguaro National Park,SPEEDWAY,1994,Arson,0.2,A,32.23395,-110.72009,AZ
239112,NPS,Saguaro National Park,EAST 5TH,1994,Arson,0.2,A,32.22734,-110.7159,AZ
239113,NPS,Saguaro National Park,EZKIMINZIN,1994,Arson,0.2,A,32.28374,-111.17387,AZ
239114,NPS,Saguaro National Park,APACHE,1994,Arson,0.3,B,32.28784,-111.19054,AZ
239115,NPS,Saguaro National Park,SPEEDWAY 2,1994,Arson,0.1,A,32.23192,-110.71977,AZ
239116,NPS,Saguaro National Park,WENTWORTH,1994,Arson,0.1,A,32.22556,-110.71975,AZ
239117,NPS,Saguaro National Park,SIGNAL 1,1994,Arson,0.1,A,32.28981,-111.20863,AZ
239118,NPS,Saguaro National Park,SIGNAL 2,1994,Arson,0.1,A,32.29003,-111.20927,AZ
239119,NPS,Saguaro National Park,5TH ST 2,1994,Arson,1.0,B,32.22416,-110.71611,AZ
239120,NPS,Saguaro National Park,GOLDEN GAT,1994,Arson,2.5,B,32.29756,-111.16085,AZ
239121,NPS,Saguaro National Park,PEAK,1994,Lightning,0.1,A,32.131,-110.52188,AZ
239122,NPS,Saguaro National Park,CONGO,1994,Lightning,0.1,A,32.18332,-110.54048,AZ
239123,NPS,Saguaro National Park,4 CORNERS,1994,Lightning,0.1,A,32.20623,-110.55753,AZ
239124,NPS,Saguaro National Park,WILDHORSE,1994,Lightning,1.0,B,32.20777,-110.67273,AZ
239125,NPS,Saguaro National Park,SAGUARO PK,1995,Miscellaneous,30.0,C,32.34877,-111.1432,AZ
239126,NPS,Saguaro National Park,POWER,1995,Campfire,0.2,A,32.25584,-111.21011,AZ
239127,NPS,Saguaro National Park,CCC SPRING,1995,Lightning,0.2,A,32.11959,-110.58289,AZ
239128,NPS,Saguaro National Park,RINCON,1995,Lightning,6.0,B,32.12031,-110.58009,AZ
239129,NPS,Saguaro National Park,TANQUE VER,1995,Lightning,38.0,C,32.1617,-110.71386,AZ
239130,NPS,Saguaro National Park,BOX,1995,Lightning,1.0,B,32.15935,-110.71139,AZ
239131,NPS,Saguaro National Park,WASP,1995,Lightning,4.0,B,32.16574,-110.65934,AZ
239132,NPS,Saguaro National Park,BATHTUB,1995,Lightning,0.2,A,32.19257,-110.54807,AZ
239133,NPS,Saguaro National Park,WASP II,1995,Lightning,0.5,B,32.15873,-110.62066,AZ
239134,NPS,Saguaro National Park,SANDARIO,1996,Children,0.1,A,32.31282,-111.21741,AZ
239135,NPS,Saguaro National Park,L'TL SPUD,1996,Debris Burning,0.8,B,32.2135,-110.55759,AZ
239136,NPS,Saguaro National Park,MICATANK,1997,Lightning,110.0,D,32.21952,-110.65479,AZ
239137,NPS,Saguaro National Park,DEVIL,1997,Lightning,2.0,B,32.20093,-110.54287,AZ
239138,NPS,Saguaro National Park,VERDE,1997,Lightning,8.0,B,32.1616,-110.65436,AZ
239139,NPS,Saguaro National Park,MICA PNF,1997,Lightning,1.5,B,32.22086,-110.55973,AZ
239140,NPS,Saguaro National Park,CAVE,1997,Debris Burning,50.0,C,32.19886,-110.56149,AZ
239141,NPS,Saguaro National Park,PEAK,1998,Lightning,0.1,A,32.11398,-110.5243,AZ
239142,NPS,Saguaro National Park,FREEMAN RD,1999,Smoking,0.1,A,32.18348,-110.73751,AZ
239143,NPS,Saguaro National Park,BOX CANYON,1999,Lightning,6476.0,G,32.16982,-110.6784,AZ
239144,NPS,Saguaro National Park,SPEEDWAY I,1999,Miscellaneous,0.1,A,32.23458,-110.69331,AZ
239145,NPS,Saguaro National Park,BRIDAL,1999,Lightning,50.0,C,32.22152,-110.65014,AZ
239146,NPS,Sunset Crater Volcano,HORNITO,1993,Campfire,0.1,A,35.362462,-111.515604,AZ
239147,NPS,Sunset Crater Volcano,SLOPE,1993,Lightning,1.3,B,35.368467,-111.500711,AZ
239148,NPS,Sunset Crater Volcano,OVER,1994,Lightning,0.1,A,35.3714,-111.4925,AZ
239149,NPS,Sunset Crater Volcano,WESTON,1994,Lightning,0.1,A,35.384153,-111.518537,AZ
239150,NPS,Sunset Crater Volcano,A 'A,1994,Lightning,2.0,B,35.36161,-111.529196,AZ
239151,NPS,Sunset Crater Volcano,TORNADO,1995,Lightning,0.1,A,35.368468,-111.500721,AZ
239152,NPS,Sunset Crater Volcano,COYOTE,1996,Lightning,0.1,A,35.376799,-111.500717,AZ
239153,NPS,Sunset Crater Volcano,SUNSET,1998,Smoking,0.1,A,35.383345,-111.500709,AZ
239154,NPS,Sunset Crater Volcano,SUNSET,1999,Lightning,0.1,A,35.363864,-111.500627,AZ
239155,NPS,Tonto National Monument,NATIONAL,1995,Miscellaneous,0.3,B,33.65,-111.084,AZ
239156,NPS,Walnut National Monument,YELLOW,1992,Lightning,0.1,A,35.1518,-111.500718,AZ
239157,NPS,Walnut National Monument,PICNIC,1993,Smoking,0.1,A,35.201799,-111.500717,AZ
239158,NPS,Walnut National Monument,CABIN WF,1995,Debris Burning,1.0,B,35.173789,-111.521084,AZ
239159,NPS,Walnut National Monument,FIELDHOUSE,1995,Lightning,0.1,A,35.173621,-111.519861,AZ
239160,NPS,Walnut National Monument,SITE,1996,Lightning,0.1,A,35.168431,-111.508386,AZ
239161,NPS,Walnut National Monument,CANYON,1998,Smoking,0.1,A,35.188267,-111.502381,AZ
239162,NPS,Walnut National Monument,REBURN,1998,Lightning,0.1,A,35.173749,-111.51749,AZ
239163,NPS,Walnut National Monument,CABIN,1998,Lightning,0.1,A,35.173371,-111.512963,AZ
239164,NPS,Walnut National Monument,POINT,1999,Campfire,0.1,A,35.166663,-111.499997,AZ
239165,NPS,Walnut National Monument,PICTO ESCA,1999,Debris Burning,5.5,B,35.162893,-111.517377,AZ
239166,NPS,Wupatki National Monument,CEDAR,1994,Lightning,0.1,A,35.549992,-111.466674,AZ
239167,NPS,Wupatki National Monument,ARROWHEAD,1994,Lightning,0.1,A,35.500004,-111.45,AZ
239168,NPS,Wupatki National Monument,DEADMAN,1994,Lightning,0.1,A,35.541666,-111.400005,AZ
239169,NPS,Wupatki National Monument,WEST,1995,Lightning,923.0,E,35.558962,-111.504992,AZ
239170,NPS,Wupatki National Monument,PICNIC,1995,Lightning,0.1,A,35.544531,-111.389593,AZ
239171,NPS,Wupatki National Monument,CRACK,1995,Lightning,0.1,A,35.533326,-111.374449,AZ
239172,NPS,Wupatki National Monument,SHOE,1996,Lightning,0.1,A,35.544991,-111.40322,AZ
239173,NPS,Wupatki National Monument,LOMAKI,1996,Lightning,15.0,C,35.574177,-111.456594,AZ
239174,NPS,Wupatki National Monument,CITADEL,1996,Lightning,35.0,C,35.574097,-111.46102,AZ
239175,NPS,Wupatki National Monument,ARROWHEAD,1996,Lightning,150.0,D,35.542122,-111.499966,AZ
239176,NPS,Wupatki National Monument,ROCKPILE,1996,Lightning,0.1,A,35.55392,-111.532677,AZ
239177,NPS,Wupatki National Monument,UFO,1997,Lightning,0.1,A,35.53269,-111.352209,AZ
239178,NPS,Wupatki National Monument,TANK,1999,Lightning,0.1,A,35.545066,-111.474335,AZ
239179,NPS,Wupatki National Monument,HEISER,1999,Lightning,0.1,A,35.491684,-111.351566,AZ
239180,NPS,Wupatki National Monument,COYOTE,1999,Lightning,0.1,A,35.545054,-111.456429,AZ
239181,NPS,Black Canyon Of the Gunnison National Park,WARNERCAMP,1996,Debris Burning,3.0,B,38.57006,-107.73622,CO
239182,NPS,Black Canyon Of the Gunnison National Park,QUICKOUT,1997,Lightning,0.1,A,38.59661,-107.71609,CO
239183,NPS,Black Canyon Of the Gunnison National Park,BOSTWICKPK,1997,Lightning,0.1,A,38.57328,-107.79243,CO
239184,NPS,Bents Old Fort National Historic Site,CATTAILS,1995,Lightning,70.0,C,38.04149,-103.42746,CO
239185,NPS,Curecanti National Recreation Area,BEAVER CRK,1992,Campfire,0.1,A,38.50258,-106.96691,CO
239186,NPS,Curecanti National Recreation Area,EAST ELK,1992,Campfire,5.0,B,38.51861,-107.14918,CO
239187,NPS,Curecanti National Recreation Area,DRY GULCH,1992,Campfire,0.1,A,38.47821,-107.1916,CO
239188,NPS,Curecanti National Recreation Area,COOPERS RN,1993,Fireworks,0.1,A,38.50833,-107.01667,CO
239189,NPS,Curecanti National Recreation Area,BIRD FIRE,1997,Equipment Use,0.1,A,38.46865,-107.05918,CO
239190,NPS,Curecanti National Recreation Area,JUNCTION,1997,Equipment Use,0.1,A,38.44062,-107.33317,CO
239191,NPS,Curecanti National Recreation Area,WEST ELK,1997,Equipment Use,0.1,A,38.50688,-107.27202,CO
239192,NPS,Curecanti National Recreation Area,L VORTAC,1997,Lightning,2.0,B,38.48395,-107.0518,CO
239193,NPS,Curecanti National Recreation Area,STEVENS,1998,Campfire,1.0,B,38.48333,-107.08333,CO
239194,NPS,Curecanti National Recreation Area,CEBOLLA,1998,Campfire,0.5,B,38.44993,-107.20129,CO
239195,NPS,Curecanti National Recreation Area,IOLA,1998,Campfire,0.1,A,38.46668,-107.10001,CO
239196,NPS,Curecanti National Recreation Area,OILSONLNDG,1999,Campfire,0.1,A,38.48333,-107.03334,CO
239197,NPS,Curecanti National Recreation Area,PIPHER,1999,Debris Burning,5.0,B,38.51666,-107.62917,CO
239198,NPS,Colorado National Monument,CRAB,1992,Lightning,0.1,A,39.03457,-108.73082,CO
239199,NPS,Colorado National Monument,STARFISH,1993,Lightning,0.1,A,39.10067,-108.74044,CO
239200,NPS,Colorado National Monument,MOWERFIRE,1993,Debris Burning,1.5,B,39.0864,-108.68464,CO
239201,NPS,Colorado National Monument,REDFISH,1994,Arson,0.1,A,39.09277,-108.7052,CO
239202,NPS,Colorado National Monument,ROWFISH,1994,Smoking,1.0,B,39.0363,-108.63047,CO
239203,NPS,Colorado National Monument,DOGFISH,1994,Smoking,0.1,A,39.1147,-108.72445,CO
239204,NPS,Colorado National Monument,WESTGATE,1994,Debris Burning,0.1,A,39.12063,-108.7302,CO
239205,NPS,Colorado National Monument,BERRYBLAZE,1994,Smoking,0.1,A,39.0805,-108.72513,CO
239206,NPS,Colorado National Monument,STONEHOUSE,1994,Debris Burning,1.5,B,39.10201,-108.73396,CO
239207,NPS,Colorado National Monument,CATCH 22,1995,Lightning,0.1,A,39.07743,-108.71073,CO
239208,NPS,Colorado National Monument,BRANCH,1995,Lightning,0.1,A,39.07069,-108.68605,CO
239209,NPS,Colorado National Monument,DELMAR,1995,Children,0.1,A,39.10254,-108.73834,CO
239210,NPS,Colorado National Monument,TINY,1995,Miscellaneous,0.1,A,39.09343,-108.73238,CO
239211,NPS,Colorado National Monument,CHILL,1995,Miscellaneous,0.1,A,39.10268,-108.73628,CO
239212,NPS,Colorado National Monument,DUCK,1995,Miscellaneous,0.1,A,39.10565,-108.73873,CO
239213,NPS,Colorado National Monument,JOES FIRE,1996,Lightning,0.1,A,39.09102,-108.69777,CO
239214,NPS,Colorado National Monument,KODEL,1997,Campfire,0.3,B,39.12205,-108.74485,CO
239215,NPS,Colorado National Monument,RIPPLE,1997,Lightning,0.1,A,39.06394,-108.73201,CO
239216,NPS,Colorado National Monument,TRIPLE L,1997,Lightning,0.1,A,39.05452,-108.66673,CO
239217,NPS,Colorado National Monument,JUNKER,1997,Lightning,0.1,A,39.08226,-108.71732,CO
239218,NPS,Colorado National Monument,PEREGRINE,1998,Lightning,0.1,A,39.01586,-108.64404,CO
239219,NPS,Colorado National Monument,MOWER,1998,Equipment Use,2.0,B,38.9881,-108.77916,CO
239220,NPS,Colorado National Monument,THUNDER,1998,Lightning,0.1,A,39.04871,-108.6578,CO
239221,NPS,Colorado National Monument,PAINTER,1998,Lightning,0.1,A,39.04616,-108.64992,CO
239222,NPS,Colorado National Monument,NOCANFIND,1998,Lightning,0.1,A,39.05854,-108.70957,CO
239223,NPS,Colorado National Monument,JOHNSON,1999,Debris Burning,3.5,B,39.07341,-108.67268,CO
239224,NPS,Colorado National Monument,HAMBURGER,1999,Lightning,0.1,A,39.10888,-108.74156,CO
239225,NPS,Colorado National Monument,HOTDOG,1999,Lightning,0.1,A,39.09654,-108.73247,CO
239226,NPS,Colorado National Monument,BUNNS,1999,Lightning,0.1,A,39.03414,-108.65964,CO
239227,NPS,Dinosaur National Monument,DITCH,1992,Debris Burning,0.1,A,40.45229,-109.26855,UT
239228,NPS,Dinosaur National Monument,PLUG HATTY,1992,Lightning,0.1,A,40.29282,-108.96793,CO
239229,NPS,Dinosaur National Monument,PINYON,1992,Lightning,0.1,A,40.72679,-108.87403,CO
239230,NPS,Dinosaur National Monument,HORSE,1992,Miscellaneous,1.5,B,40.2693,-108.56653,CO
239231,NPS,Dinosaur National Monument,CONWAY,1992,Lightning,0.1,A,40.71041,-108.87602,CO
239232,NPS,Dinosaur National Monument,ANT HILLS,1992,Lightning,0.1,A,40.5394,-108.89945,CO
239233,NPS,Dinosaur National Monument,PEE WEE,1992,Miscellaneous,0.1,A,40.4492,-108.9846,CO
239234,NPS,Dinosaur National Monument,WILDFIRE,1992,Lightning,0.1,A,40.57414,-109.0123,CO
239235,NPS,Dinosaur National Monument,COTTONWOOD,1992,Lightning,0.1,A,40.64151,-108.80406,CO
239236,NPS,Dinosaur National Monument,DUFUS,1992,Lightning,0.1,A,40.63136,-108.69991,CO
239237,NPS,Dinosaur National Monument,DRENCHED,1992,Lightning,0.1,A,40.45669,-108.94125,CO
239238,NPS,Dinosaur National Monument,SAND RIM,1992,Lightning,0.1,A,40.47445,-109.01205,CO
239239,NPS,Dinosaur National Monument,HIDDEN,1992,Lightning,0.1,A,40.51505,-108.96371,CO
239240,NPS,Dinosaur National Monument,BILLARD,1992,Lightning,0.1,A,40.48173,-108.96419,CO
239241,NPS,Dinosaur National Monument,FINGER,1992,Lightning,0.1,A,40.5135,-108.92419,CO
239242,NPS,Dinosaur National Monument,RIDGE,1992,Lightning,0.1,A,40.43849,-108.65974,CO
239243,NPS,Dinosaur National Monument,POCKET,1992,Lightning,0.1,A,40.48458,-108.97299,CO
239244,NPS,Dinosaur National Monument,HOURGLASS,1992,Lightning,0.1,A,40.47508,-108.87723,CO
239245,NPS,Dinosaur National Monument,WILD 2,1992,Lightning,0.1,A,40.55599,-108.99178,CO
239246,NPS,Dinosaur National Monument,VIOLA'S,1992,Campfire,0.1,A,40.42263,-109.24709,UT
239247,NPS,Dinosaur National Monument,RIPPLING,1992,Lightning,0.1,A,40.57788,-108.98771,CO
239248,NPS,Dinosaur National Monument,SKULL,1992,Lightning,0.1,A,40.26664,-108.96733,CO
239249,NPS,Dinosaur National Monument,UNSEEN,1992,Lightning,0.1,A,40.59905,-108.99964,CO
239250,NPS,Dinosaur National Monument,CRAZY DAY,1992,Lightning,0.2,A,40.52577,-108.80193,CO
239251,NPS,Dinosaur National Monument,WOLF,1993,Lightning,0.1,A,40.35932,-108.60386,CO
239252,NPS,Dinosaur National Monument,WOLF 2,1993,Lightning,0.1,A,40.36129,-108.60045,CO
239253,NPS,Dinosaur National Monument,WOLF 3,1993,Lightning,0.1,A,40.36176,-108.60373,CO
239254,NPS,Dinosaur National Monument,BONE YARD,1993,Debris Burning,0.1,A,40.41259,-109.25063,UT
239255,NPS,Dinosaur National Monument,EAST DINO,1993,Miscellaneous,0.7,B,40.24295,-108.96981,CO
239256,NPS,Dinosaur National Monument,ROADSIDE1,1993,Miscellaneous,0.1,A,40.31672,-108.93407,CO
239257,NPS,Dinosaur National Monument,DUMPSTER,1993,Debris Burning,0.1,A,40.24509,-108.97288,CO
239258,NPS,Dinosaur National Monument,FIRST,1994,Lightning,0.1,A,40.53873,-108.72233,CO
239259,NPS,Dinosaur National Monument,DEERLODGE,1994,Smoking,0.1,A,40.40394,-108.34235,CO
239260,NPS,Dinosaur National Monument,BOWER,1994,Lightning,0.4,B,40.59996,-108.68399,CO
239261,NPS,Dinosaur National Monument,BEAR II,1994,Lightning,0.5,B,40.38276,-108.76492,CO
239262,NPS,Dinosaur National Monument,LAZY Z,1994,Lightning,0.5,B,40.26663,-108.08397,CO
239263,NPS,Dinosaur National Monument,SPLIT 1,1994,Lightning,0.1,A,40.48737,-109.29438,UT
239264,NPS,Dinosaur National Monument,CONFUSION,1994,Lightning,0.1,A,40.44822,-108.68432,CO
239265,NPS,Dinosaur National Monument,HAYSTACK,1994,Lightning,0.1,A,40.45906,-108.67403,CO
239266,NPS,Dinosaur National Monument,SPARCE,1994,Lightning,0.1,A,40.45873,-108.73228,CO
239267,NPS,Dinosaur National Monument,THE BEAR,1994,Lightning,0.5,B,40.45963,-108.69842,CO
239268,NPS,Dinosaur National Monument,OLD BURN,1994,Lightning,0.1,A,40.45929,-108.74648,CO
239269,NPS,Dinosaur National Monument,TANKS,1994,Lightning,0.1,A,40.44734,-108.74941,CO
239270,NPS,Dinosaur National Monument,DRY,1994,Lightning,0.1,A,40.45916,-108.74179,CO
239271,NPS,Dinosaur National Monument,GLOW,1994,Lightning,0.1,A,40.70836,-108.89078,CO
239272,NPS,Dinosaur National Monument,HOLLAND,1994,Lightning,1.0,B,40.50275,-108.15064,CO
239273,NPS,Dinosaur National Monument,RIM,1994,Lightning,0.1,A,40.45692,-108.65174,CO
239274,NPS,Dinosaur National Monument,SPLIT MT 2,1994,Lightning,0.1,A,40.48717,-109.25533,UT
239275,NPS,Dinosaur National Monument,CROSS MTN,1994,Miscellaneous,18.0,C,40.43166,-108.36501,CO
239276,NPS,Dinosaur National Monument,MONDAY,1994,Lightning,0.1,A,40.50256,-108.72673,CO
239277,NPS,Dinosaur National Monument,VISITOR,1994,Lightning,0.1,A,40.55589,-109.03689,CO
239278,NPS,Dinosaur National Monument,BIRTHDAY,1994,Lightning,0.1,A,40.46169,-108.62979,CO
239279,NPS,Dinosaur National Monument,PAYPERIOD,1995,Lightning,0.1,A,40.5344,-108.94488,CO
239280,NPS,Dinosaur National Monument,WILD MTN,1995,Lightning,0.1,A,40.55573,-108.99371,CO
239281,NPS,Dinosaur National Monument,HELLS CYN,1995,Lightning,0.1,A,40.44149,-108.85809,CO
239282,NPS,Dinosaur National Monument,VIVA'S,1995,Lightning,0.1,A,40.47725,-109.06664,UT
239283,NPS,Dinosaur National Monument,OVERLOOK,1995,Lightning,0.1,A,40.48607,-109.0691,UT
239284,NPS,Dinosaur National Monument,POT,1995,Lightning,0.1,A,40.64329,-108.9416,CO
239285,NPS,Dinosaur National Monument,MUD SPRING,1995,Lightning,0.1,A,40.34297,-108.3516,CO
239286,NPS,Dinosaur National Monument,K,1995,Equipment Use,180.0,D,40.28741,-109.04563,CO
239287,NPS,Dinosaur National Monument,DRIP,1995,Lightning,0.2,A,40.24572,-108.95856,CO
239288,NPS,Dinosaur National Monument,WELL,1995,Lightning,0.5,B,40.26409,-108.98398,CO
239289,NPS,Dinosaur National Monument,NOT RAVEN,1995,Missing/Undefined,0.1,A,40.06436,-109.1436,UT
239290,NPS,Dinosaur National Monument,LIMESTONE,1995,Lightning,0.1,A,40.58806,-108.94443,CO
239291,NPS,Dinosaur National Monument,CAMPER,1995,Equipment Use,0.1,A,40.28726,-109.12679,UT
239292,NPS,Dinosaur National Monument,HARDING,1995,Lightning,0.1,A,40.45577,-108.8649,CO
239293,NPS,Dinosaur National Monument,LIMESTONE2,1995,Lightning,0.1,A,40.57269,-108.59688,CO
239294,NPS,Dinosaur National Monument,SNOW,1995,Lightning,0.1,A,40.52906,-109.0519,UT
239295,NPS,Dinosaur National Monument,ROCKY,1995,Lightning,0.1,A,40.45212,-108.99692,CO
239296,NPS,Dinosaur National Monument,RIM,1995,Lightning,0.1,A,40.52106,-108.96549,CO
239297,NPS,Dinosaur National Monument,JUNCTION,1995,Lightning,0.1,A,40.48556,-108.97925,CO
239298,NPS,Dinosaur National Monument,MASSEY,1995,Lightning,1.0,B,40.6076,-108.98306,CO
239299,NPS,Dinosaur National Monument,WARM SPGS2,1995,Lightning,0.1,A,40.5497,-108.9256,CO
239300,NPS,Dinosaur National Monument,WARM SPGS1,1995,Lightning,0.1,A,40.54486,-108.92902,CO
239301,NPS,Dinosaur National Monument,JACK SPGS,1995,Lightning,0.1,A,40.66338,-108.88901,CO
239302,NPS,Dinosaur National Monument,CORRAL,1995,Lightning,2.4,B,40.44249,-108.99184,CO
239303,NPS,Dinosaur National Monument,COOPER,1995,Lightning,0.1,A,40.63477,-108.94598,CO
239304,NPS,Dinosaur National Monument,THANKS,1995,Lightning,0.1,A,40.44012,-108.65555,CO
239305,NPS,Dinosaur National Monument,SCHOONOVER,1995,Lightning,0.1,A,40.4925,-108.77893,CO
239306,NPS,Dinosaur National Monument,WANDA,1995,Lightning,0.1,A,40.57707,-108.90748,CO
239307,NPS,Dinosaur National Monument,OUTLAW,1995,Lightning,0.1,A,40.55511,-108.95151,CO
239308,NPS,Dinosaur National Monument,TRAIL,1995,Lightning,0.1,A,40.50129,-109.02141,CO
239309,NPS,Dinosaur National Monument,BOWER,1995,Lightning,0.1,A,40.4907,-108.71232,CO
239310,NPS,Dinosaur National Monument,IRON,1995,Lightning,0.1,A,40.48483,-109.06683,UT
239311,NPS,Dinosaur National Monument,STRIKE,1995,Lightning,0.1,A,40.45475,-108.88476,CO
239312,NPS,Dinosaur National Monument,ROADS END,1995,Lightning,0.1,A,40.48254,-109.12904,UT
239313,NPS,Dinosaur National Monument,GRAVEYARD,1995,Lightning,0.1,A,40.54133,-109.14283,UT
239314,NPS,Dinosaur National Monument,QUICK,1995,Lightning,0.1,A,40.51641,-108.74785,CO
239315,NPS,Dinosaur National Monument,MOONLIGHT,1995,Lightning,0.1,A,40.49366,-108.68672,CO
239316,NPS,Dinosaur National Monument,DRY WOMAN,1995,Lightning,0.1,A,40.48907,-108.72917,CO
239317,NPS,Dinosaur National Monument,DINOSAUR,1996,Lightning,7.0,B,40.24229,-108.97387,CO
239318,NPS,Dinosaur National Monument,LIMESTONE,1996,Lightning,0.1,A,40.57097,-108.94543,CO
239319,NPS,Dinosaur National Monument,E WINNIE,1996,Lightning,0.1,A,40.67761,-108.88743,CO
239320,NPS,Dinosaur National Monument,STATE LINE,1996,Lightning,0.1,A,40.30245,-109.04844,CO
239321,NPS,Dinosaur National Monument,RIPPLING,1996,Lightning,1.5,B,40.59764,-108.98405,CO
239322,NPS,Dinosaur National Monument,BULL DRAW,1996,Lightning,0.1,A,39.87748,-108.81808,CO
239323,NPS,Dinosaur National Monument,20,1996,Lightning,0.1,A,40.65427,-108.90882,CO
239324,NPS,Dinosaur National Monument,RED ROCK I,1996,Lightning,0.1,A,40.47719,-108.96121,CO
239325,NPS,Dinosaur National Monument,BENCH,1996,Lightning,0.1,A,40.4899,-108.92267,CO
239326,NPS,Dinosaur National Monument,RED ROCKII,1996,Lightning,0.1,A,40.47218,-108.96554,CO
239327,NPS,Dinosaur National Monument,BOWER,1996,Lightning,0.1,A,40.49702,-108.75275,CO
239328,NPS,Dinosaur National Monument,L.D.FALLS,1996,Lightning,2201.0,F,40.6317,-108.9124,CO
239329,NPS,Dinosaur National Monument,BLACKRIDGE,1996,Lightning,0.1,A,40.65133,-108.94715,CO
239330,NPS,Dinosaur National Monument,ZENOBIA2,1996,Lightning,2149.0,F,40.6318,-108.90502,CO
239331,NPS,Dinosaur National Monument,ANTS,1996,Lightning,0.1,A,40.53504,-108.88506,CO
239332,NPS,Dinosaur National Monument,IRON MINE,1996,Lightning,0.1,A,40.57558,-108.92435,CO
239333,NPS,Dinosaur National Monument,POOL CREEK,1996,Lightning,0.1,A,40.48378,-109.0406,CO
239334,NPS,Dinosaur National Monument,WILD MTN,1996,Lightning,0.1,A,40.55845,-109.01473,CO
239335,NPS,Dinosaur National Monument,ROUNDTOP#1,1996,Lightning,0.1,A,40.4571,-108.91473,CO
239336,NPS,Dinosaur National Monument,ROUNDTOP#2,1996,Lightning,0.1,A,40.45967,-108.91893,CO
239337,NPS,Dinosaur National Monument,STARVATION,1996,Lightning,0.1,A,40.51897,-108.82939,CO
239338,NPS,Dinosaur National Monument,HAYSTACK,1996,Lightning,0.1,A,40.46028,-108.70862,CO
239339,NPS,Dinosaur National Monument,CORRAL,1996,Lightning,0.1,A,40.4721,-108.62131,CO
239340,NPS,Dinosaur National Monument,MINE,1996,Lightning,2.5,B,40.57409,-108.92699,CO
239341,NPS,Dinosaur National Monument,WILD,1996,Lightning,823.0,E,40.56381,-108.99754,CO
239342,NPS,Dinosaur National Monument,LIMESTONE2,1996,Lightning,0.1,A,40.59749,-108.91922,CO
239343,NPS,Dinosaur National Monument,ALCOVE,1996,Lightning,0.1,A,40.58428,-108.94442,CO
239344,NPS,Dinosaur National Monument,BLIND,1996,Lightning,0.1,A,40.4585,-108.82771,CO
239345,NPS,Dinosaur National Monument,HELLS,1996,Lightning,0.1,A,40.43006,-108.88691,CO
239346,NPS,Dinosaur National Monument,DUDLEY,1996,Lightning,0.1,A,40.42207,-109.01485,CO
239347,NPS,Dinosaur National Monument,BASE,1996,Lightning,0.3,B,40.44704,-108.77035,CO
239348,NPS,Dinosaur National Monument,BASIN,1996,Lightning,0.1,A,40.49663,-108.71379,CO
239349,NPS,Dinosaur National Monument,BOUNDRY,1996,Lightning,0.1,A,40.51092,-108.73832,CO
239350,NPS,Dinosaur National Monument,JUNCTION,1996,Lightning,0.1,A,40.49799,-108.99093,CO
239351,NPS,Dinosaur National Monument,PERSISTENT,1996,Lightning,163.0,D,40.58343,-109.00011,CO
239352,NPS,Dinosaur National Monument,MP7,1996,Arson,10.0,C,40.23509,-108.9225,CO
239353,NPS,Dinosaur National Monument,PEARL,1996,Lightning,0.1,A,40.47349,-108.98036,CO
239354,NPS,Dinosaur National Monument,TANKS,1996,Lightning,0.1,A,40.44862,-108.7569,CO
239355,NPS,Dinosaur National Monument,ROSS,1996,Lightning,0.8,B,40.67517,-108.8856,CO
239356,NPS,Dinosaur National Monument,RIDGE,1996,Lightning,0.3,B,40.66628,-108.88202,CO
239357,NPS,Dinosaur National Monument,TRAIL DRAW,1996,Lightning,0.1,A,40.4865,-109.04482,CO
239358,NPS,Dinosaur National Monument,RAILROAD,1996,Arson,8.0,B,40.2348,-108.92302,CO
239359,NPS,Dinosaur National Monument,HARDING,1996,Lightning,3.0,B,40.4597,-108.86039,CO
239360,NPS,Dinosaur National Monument,REDROCK3,1996,Lightning,6.0,B,40.4695,-108.96527,CO
239361,NPS,Dinosaur National Monument,PLATEAU,1996,Lightning,0.1,A,40.45355,-109.17024,UT
239362,NPS,Dinosaur National Monument,IRON SPGS,1996,Lightning,0.1,A,40.48024,-109.03585,CO
239363,NPS,Dinosaur National Monument,FLAT,1996,Lightning,0.1,A,40.50416,-108.95175,CO
239364,NPS,Dinosaur National Monument,SAND,1996,Lightning,0.1,A,40.49765,-108.9973,CO
239365,NPS,Dinosaur National Monument,PEARL #2,1996,Lightning,0.1,A,40.46042,-108.98149,CO
239366,NPS,Dinosaur National Monument,RAWS,1996,Lightning,0.1,A,40.52017,-108.93487,CO
239367,NPS,Dinosaur National Monument,PEARL 3,1996,Lightning,0.1,A,40.45751,-108.99262,CO
239368,NPS,Dinosaur National Monument,REDD,1996,Lightning,0.1,A,40.46908,-108.82832,CO
239369,NPS,Dinosaur National Monument,HARPERS,1996,Lightning,0.1,A,40.52655,-109.03126,CO
239370,NPS,Dinosaur National Monument,JUNCTION,1997,Lightning,0.1,A,40.50138,-109.00041,CO
239371,NPS,Dinosaur National Monument,LIME,1997,Lightning,0.1,A,40.57861,-108.94569,CO
239372,NPS,Dinosaur National Monument,RED,1997,Lightning,0.1,A,40.47046,-108.93177,CO
239373,NPS,Dinosaur National Monument,IRON,1997,Lightning,0.1,A,40.57388,-108.92117,CO
239374,NPS,Dinosaur National Monument,LANGLEY,1997,Lightning,0.1,A,40.56177,-108.60596,CO
239375,NPS,Dinosaur National Monument,WARM,1997,Lightning,0.1,A,40.54937,-108.91841,CO
239376,NPS,Dinosaur National Monument,VIVAS,1997,Lightning,0.1,A,40.4723,-109.0497,CO
239377,NPS,Dinosaur National Monument,TWIN,1997,Lightning,0.1,A,40.50238,-108.92197,CO
239378,NPS,Dinosaur National Monument,MARTHAS,1997,Lightning,0.1,A,40.45417,-108.87961,CO
239379,NPS,Dinosaur National Monument,HELLS,1997,Lightning,0.1,A,40.43882,-108.89836,CO
239380,NPS,Dinosaur National Monument,CASTLE,1997,Lightning,0.1,A,40.46802,-108.87567,CO
239381,NPS,Dinosaur National Monument,OUTLAW,1997,Lightning,0.1,A,40.55562,-108.9452,CO
239382,NPS,Dinosaur National Monument,WALTER,1997,Equipment Use,10.0,C,40.8366,-109.07651,UT
239383,NPS,Dinosaur National Monument,JENNY,1997,Lightning,0.1,A,40.52109,-108.98317,CO
239384,NPS,Dinosaur National Monument,SAND RIM,1997,Lightning,0.1,A,40.52125,-108.97744,CO
239385,NPS,Dinosaur National Monument,SOB,1997,Lightning,0.1,A,40.47128,-109.18886,UT
239386,NPS,Dinosaur National Monument,MAGNET,1997,Smoking,0.1,A,40.38283,-108.99724,CO
239387,NPS,Dinosaur National Monument,REDCANYON,1997,Lightning,0.1,A,40.45189,-108.94637,CO
239388,NPS,Dinosaur National Monument,CASTLE,1997,Lightning,0.1,A,40.46727,-108.88802,CO
239389,NPS,Dinosaur National Monument,WET,1997,Lightning,0.1,A,40.55026,-108.93794,CO
239390,NPS,Dinosaur National Monument,WHIRLPOOL,1997,Lightning,0.1,A,40.53083,-109.06274,UT
239391,NPS,Dinosaur National Monument,BLACKRIDGE,1997,Lightning,0.1,A,40.6471,-108.94262,CO
239392,NPS,Dinosaur National Monument,JENNY,1998,Lightning,0.1,A,40.51709,-108.97728,CO
239393,NPS,Dinosaur National Monument,HILLSIDE,1998,Lightning,0.1,A,40.48992,-109.01892,CO
239394,NPS,Dinosaur National Monument,COVE,1998,Lightning,0.1,A,40.50983,-109.12396,UT
239395,NPS,Dinosaur National Monument,RAINBOW,1998,Lightning,287.0,D,40.50555,-109.13057,UT
239396,NPS,Dinosaur National Monument,JOHNSON,1998,Lightning,459.0,E,40.45595,-108.8697,CO
239397,NPS,Dinosaur National Monument,WHIRLPOOL,1998,Lightning,0.1,A,40.54228,-109.03546,CO
239398,NPS,Dinosaur National Monument,GREEN,1998,Campfire,0.1,A,40.41921,-109.24337,UT
239399,NPS,Dinosaur National Monument,OUTLAW,1998,Lightning,0.1,A,40.57857,-108.91614,CO
239400,NPS,Dinosaur National Monument,WILD MTN 1,1998,Lightning,0.1,A,40.55602,-108.99694,CO
239401,NPS,Dinosaur National Monument,JACKSPRING,1998,Lightning,0.1,A,40.68051,-108.87972,CO
239402,NPS,Dinosaur National Monument,WILD MTN 2,1998,Lightning,0.1,A,40.55957,-108.97138,CO
239403,NPS,Dinosaur National Monument,MASSEY,1998,Lightning,0.1,A,40.6076,-108.99447,CO
239404,NPS,Dinosaur National Monument,RADIO,1998,Lightning,0.5,B,40.57286,-109.00207,CO
239405,NPS,Dinosaur National Monument,TRAILERDRA,1998,Lightning,0.1,A,40.66568,-108.89983,CO
239406,NPS,Dinosaur National Monument,LIMEY,1998,Lightning,0.1,A,40.58852,-108.95135,CO
239407,NPS,Dinosaur National Monument,IRONSPRING,1998,Lightning,120.0,D,40.47544,-109.01779,CO
239408,NPS,Dinosaur National Monument,QUICK,1998,Lightning,0.1,A,40.50449,-108.9959,CO
239409,NPS,Dinosaur National Monument,SCHOOLBOY,1998,Lightning,0.1,A,40.47536,-109.20133,UT
239410,NPS,Dinosaur National Monument,NEWYEAR,1998,Lightning,0.1,A,40.45688,-109.01757,CO
239411,NPS,Dinosaur National Monument,OUTLAW,1999,Lightning,0.1,A,40.49923,-108.92565,CO
239412,NPS,Dinosaur National Monument,BENCH,1999,Lightning,0.1,A,40.46441,-108.932,CO
239413,NPS,Dinosaur National Monument,HOGISLAND,1999,Campfire,0.5,B,40.52297,-109.14923,UT
239414,NPS,Dinosaur National Monument,NOTELL,1999,Campfire,0.1,A,40.523,-109.14919,UT
239415,NPS,Dinosaur National Monument,LADDIE,1999,Lightning,0.1,A,40.4748,-108.91219,CO
239416,NPS,Dinosaur National Monument,CAMPER,1999,Miscellaneous,0.1,A,40.4498,-108.52316,CO
239417,NPS,Dinosaur National Monument,NOTHING,1999,Lightning,0.1,A,40.44389,-109.19482,UT
239418,NPS,Dinosaur National Monument,RED ROCK,1999,Lightning,80.0,C,40.46352,-108.92569,CO
239419,NPS,Dinosaur National Monument,HAWKEYE,1999,Lightning,0.1,A,40.44503,-108.73936,CO
239420,NPS,Dinosaur National Monument,RETIRE,1999,Lightning,2.0,B,40.71504,-108.88169,CO
239421,NPS,Dinosaur National Monument,BILLIARD,1999,Lightning,0.1,A,40.48339,-108.96107,CO
239422,NPS,Dinosaur National Monument,WET,1999,Lightning,0.1,A,40.47024,-108.90688,CO
239423,NPS,Dinosaur National Monument,BUDDY,1999,Lightning,0.1,A,40.45383,-108.9248,CO
239424,NPS,Dinosaur National Monument,HAIRCUT,1999,Lightning,0.1,A,40.44769,-108.9302,CO
239425,NPS,Dinosaur National Monument,SOB,1999,Lightning,20.0,C,40.46759,-109.19455,UT
239426,NPS,Dinosaur National Monument,BOWER,1999,Lightning,0.1,A,40.50968,-108.73308,CO
239427,NPS,Dinosaur National Monument,5 SPRINGS,1999,Lightning,0.1,A,40.50191,-108.76051,CO
239428,NPS,Dinosaur National Monument,LIMESTONE,1999,Lightning,0.1,A,40.59818,-108.93834,CO
239429,NPS,Florissant Fossil Beds National Monument,MAMMOTH,1996,Lightning,0.2,A,38.90047,-105.25888,CO
239430,NPS,Florissant Fossil Beds National Monument,HOMESTAKE,1998,Lightning,0.1,A,38.90186,-105.29193,CO
239431,NPS,Florissant Fossil Beds National Monument,CEMETERY,1999,Miscellaneous,3.0,B,38.93048,-105.27409,CO
239432,NPS,Great Sand Dunes National Park and Preserve,REWERS,1992,Lightning,3.0,B,37.7,-105.5672,CO
239433,NPS,Great Sand Dunes National Park and Preserve,SAND CASTL,1992,Lightning,0.3,B,37.75,-105.5172,CO
239434,NPS,Great Sand Dunes National Park and Preserve,HORSECREEK,1996,Lightning,0.1,A,37.77819,-105.50481,CO
239435,NPS,Great Sand Dunes National Park and Preserve,FINGERS,1996,Lightning,21.6,C,37.69766,-105.56621,CO
239436,NPS,Great Sand Dunes National Park and Preserve,BUDLIGHT,1997,Campfire,0.1,A,37.766,-105.5729,CO
239437,NPS,Great Sand Dunes National Park and Preserve,GRACE,1998,Campfire,0.1,A,37.7944,-105.5078,CO
239438,NPS,Great Sand Dunes National Park and Preserve,DRILLER,1999,Equipment Use,0.1,A,37.78833,-105.6509,CO
239439,NPS,Mesa Verde National Park,CHAPIN 1,1992,Lightning,0.1,A,37.2167,-108.5006,CO
239440,NPS,Mesa Verde National Park,ENTRANCE,1992,Lightning,0.1,A,37.3333,-108.4173,CO
239441,NPS,Mesa Verde National Park,ENTRANCE 2,1992,Lightning,0.1,A,37.3333,-108.4173,CO
239442,NPS,Mesa Verde National Park,WETHERILL,1992,Lightning,0.1,A,37.2,-108.534,CO
239443,NPS,Mesa Verde National Park,WEST RIM I,1992,Lightning,0.1,A,37.1667,-108.6506,CO
239444,NPS,Mesa Verde National Park,WEST RIMII,1992,Lightning,0.1,A,37.1667,-108.634,CO
239445,NPS,Mesa Verde National Park,COWBOY I,1992,Lightning,0.1,A,37.1,-108.634,CO
239446,NPS,Mesa Verde National Park,COWBOY II,1992,Lightning,0.1,A,37.1,-108.6173,CO
239447,NPS,Mesa Verde National Park,CHIMNEY,1992,Lightning,0.1,A,37.0667,-108.7006,CO
239448,NPS,Mesa Verde National Park,WEST UTE 1,1992,Lightning,0.1,A,37.1833,-108.5673,CO
239449,NPS,Mesa Verde National Park,CHAPIN II,1992,Lightning,0.1,A,37.2333,-108.5006,CO
239450,NPS,Mesa Verde National Park,B CUT,1992,Lightning,0.1,A,37.2833,-108.434,CO
239451,NPS,Mesa Verde National Park,SPRUCETREE,1992,Children,0.1,A,37.3167,-108.484,CO
239452,NPS,Mesa Verde National Park,GREASEWOOD,1992,Lightning,0.1,A,37.05,-108.4173,CO
239453,NPS,Mesa Verde National Park,EAGLE EYE,1992,Lightning,0.1,A,37.1167,-108.5006,CO
239454,NPS,Mesa Verde National Park,MUG HOUSE,1992,Lightning,0.1,A,37.2,-108.534,CO
239455,NPS,Mesa Verde National Park,LOOKOUT,1992,Lightning,0.1,A,37.3333,-108.4173,CO
239456,NPS,Mesa Verde National Park,BADGER,1992,Lightning,0.1,A,37.1667,-108.5173,CO
239457,NPS,Mesa Verde National Park,CHAPIN 1,1993,Lightning,0.1,A,37.2,-108.5173,CO
239458,NPS,Mesa Verde National Park,PARK 1,1993,Lightning,0.1,A,37.1667,-108.4673,CO
239459,NPS,Mesa Verde National Park,PARK 2,1993,Lightning,0.1,A,37.1667,-108.4673,CO
239460,NPS,Mesa Verde National Park,ENTRANCE,1993,Equipment Use,0.1,A,37.3333,-108.4006,CO
239461,NPS,Mesa Verde National Park,FAR VIEW,1993,Lightning,0.1,A,37.25,-108.5006,CO
239462,NPS,Mesa Verde National Park,WETHERILL1,1993,Lightning,0.1,A,37.2833,-108.5173,CO
239463,NPS,Mesa Verde National Park,WETHERILL2,1993,Lightning,0.1,A,37.2833,-108.5173,CO
239464,NPS,Mesa Verde National Park,PARK 3,1993,Lightning,0.1,A,37.1833,-108.484,CO
239465,NPS,Mesa Verde National Park,WETHERILL3,1993,Lightning,0.1,A,37.2833,-108.5173,CO
239466,NPS,Mesa Verde National Park,PRATER RID,1993,Lightning,0.1,A,37.2167,-108.434,CO
239467,NPS,Mesa Verde National Park,FAR VIEW 3,1993,Lightning,0.1,A,37.2833,-108.4506,CO
239468,NPS,Mesa Verde National Park,PARK 4,1993,Lightning,0.1,A,37.2167,-108.484,CO
239469,NPS,Mesa Verde National Park,TRAM RD,1993,Lightning,0.1,A,37.1667,-108.5006,CO
239470,NPS,Mesa Verde National Park,N MOCCASIN,1993,Lightning,0.2,A,37.2,-108.6173,CO
239471,NPS,Mesa Verde National Park,PITHOUSE,1993,Lightning,0.1,A,37.1667,-108.484,CO
239472,NPS,Mesa Verde National Park,SCHOOL SCT,1993,Lightning,0.1,A,37.1833,-108.4506,CO
239473,NPS,Mesa Verde National Park,CHAPIN 2,1993,Lightning,0.1,A,37.0,-108.0006,CO
239474,NPS,Mesa Verde National Park,CLIFF,1993,Lightning,0.1,A,37.1667,-108.4673,CO
239475,NPS,Mesa Verde National Park,FARVIEW 4,1993,Lightning,0.1,A,37.25,-108.5006,CO
239476,NPS,Mesa Verde National Park,PITHOUSE 2,1993,Lightning,0.1,A,37.1667,-108.484,CO
239477,NPS,Mesa Verde National Park,CHAPIN 3,1993,Lightning,0.1,A,37.21688,-108.49732,CO
239478,NPS,Mesa Verde National Park,CAT LINE,1993,Lightning,0.1,A,37.1833,-108.4506,CO
239479,NPS,Mesa Verde National Park,PITHOUSE4,1994,Lightning,0.1,A,37.1167,-108.5006,CO
239480,NPS,Mesa Verde National Park,CHAPIN 1,1994,Lightning,0.1,A,37.2333,-108.5006,CO
239481,NPS,Mesa Verde National Park,FARVIEW 1,1994,Lightning,0.1,A,37.25,-108.484,CO
239482,NPS,Mesa Verde National Park,FOUR WAY,1994,Lightning,0.1,A,37.1833,-108.484,CO
239483,NPS,Mesa Verde National Park,FARVIEW 2,1994,Lightning,0.1,A,37.24755,-108.48734,CO
239484,NPS,Mesa Verde National Park,PARK 1,1994,Lightning,0.1,A,37.2333,-108.4673,CO
239485,NPS,Mesa Verde National Park,ENTRANCE,1994,Lightning,0.1,A,37.3167,-108.4173,CO
239486,NPS,Mesa Verde National Park,PARK 2,1994,Lightning,0.1,A,37.2167,-108.484,CO
239487,NPS,Mesa Verde National Park,NAVAJO,1994,Lightning,0.1,A,37.2,-108.5173,CO
239488,NPS,Mesa Verde National Park,MOCCASIN,1994,Lightning,0.1,A,37.2167,-108.4506,CO
239489,NPS,Mesa Verde National Park,CHAPIN 2,1994,Lightning,0.1,A,37.2167,-108.5006,CO
239490,NPS,Mesa Verde National Park,CHAPIN 4,1994,Lightning,0.1,A,37.1833,-108.5006,CO
239491,NPS,Mesa Verde National Park,CHAPIN 3,1994,Lightning,0.6,B,37.2,-108.5006,CO
239492,NPS,Mesa Verde National Park,NAVAJO 2,1994,Lightning,0.1,A,37.2,-108.5006,CO
239493,NPS,Mesa Verde National Park,LONGSPUR,1994,Lightning,0.1,A,37.2667,-108.5506,CO
239494,NPS,Mesa Verde National Park,LONG SPUR3,1994,Lightning,0.1,A,37.2833,-108.534,CO
239495,NPS,Mesa Verde National Park,LONG SPUR2,1994,Lightning,0.1,A,37.2833,-108.534,CO
239496,NPS,Mesa Verde National Park,WETHERILL1,1994,Lightning,0.1,A,37.2,-108.534,CO
239497,NPS,Mesa Verde National Park,WETHERILL2,1994,Lightning,0.3,B,37.2,-108.5506,CO
239498,NPS,Mesa Verde National Park,EAST FORK,1994,Lightning,0.1,A,37.1833,-108.584,CO
239499,NPS,Mesa Verde National Park,MOCCASIN 1,1994,Lightning,0.1,A,37.1667,-108.434,CO
239500,NPS,Mesa Verde National Park,MOCCASIN 2,1994,Lightning,0.1,A,37.1333,-108.4506,CO
239501,NPS,Mesa Verde National Park,EAGLE EYE,1994,Lightning,0.1,A,37.1167,-108.534,CO
239502,NPS,Mesa Verde National Park,CHAPIN 6,1994,Lightning,0.1,A,37.1167,-108.5006,CO
239503,NPS,Mesa Verde National Park,CHAPIN 5,1994,Lightning,0.1,A,37.1167,-108.5006,CO
239504,NPS,Mesa Verde National Park,LONG MESA,1994,Lightning,0.1,A,37.2,-108.534,CO
239505,NPS,Mesa Verde National Park,PRATER,1994,Lightning,0.1,A,37.25,-108.4506,CO
239506,NPS,Mesa Verde National Park,SCHOOL,1994,Lightning,0.1,A,37.25,-108.4506,CO
239507,NPS,Mesa Verde National Park,CHAPIN 7,1994,Lightning,0.1,A,37.2,-108.5006,CO
239508,NPS,Mesa Verde National Park,BOBCAT,1994,Lightning,0.1,A,37.25,-108.3506,CO
239509,NPS,Mesa Verde National Park,MOCCASIN 3,1994,Lightning,0.1,A,37.1667,-108.4173,CO
239510,NPS,Mesa Verde National Park,SCHOOL 2,1994,Lightning,0.1,A,37.25,-108.4506,CO
239511,NPS,Mesa Verde National Park,W ENTRANCE,1994,Lightning,0.1,A,37.3333,-108.4173,CO
239512,NPS,Mesa Verde National Park,LONG HOUSE,1994,Lightning,0.1,A,37.1833,-108.534,CO
239513,NPS,Mesa Verde National Park,LONG MESA2,1994,Lightning,0.1,A,37.1667,-108.5006,CO
239514,NPS,Mesa Verde National Park,EAGLE EYE2,1994,Lightning,0.1,A,37.0833,-108.534,CO
239515,NPS,Mesa Verde National Park,EAGLE EYE3,1994,Lightning,0.1,A,37.1167,-108.534,CO
239516,NPS,Mesa Verde National Park,PARK POINT,1994,Lightning,1.5,B,37.2833,-108.4673,CO
239517,NPS,Mesa Verde National Park,NORTH RIM,1994,Lightning,0.1,A,37.2667,-108.5173,CO
239518,NPS,Mesa Verde National Park,WEBER 3,1994,Lightning,0.1,A,37.25,-108.334,CO
239519,NPS,Mesa Verde National Park,PARK 3,1994,Lightning,0.1,A,37.2,-108.5006,CO
239520,NPS,Mesa Verde National Park,CHAPIN 9,1994,Lightning,0.1,A,37.1639,-108.4673,CO
239521,NPS,Mesa Verde National Park,WICKIUP 1,1994,Lightning,0.1,A,37.1833,-108.5006,CO
239522,NPS,Mesa Verde National Park,BATTLESHIP,1994,Lightning,0.1,A,37.25,-108.5006,CO
239523,NPS,Mesa Verde National Park,FARVIEW 3,1994,Lightning,2.0,B,37.2333,-108.5006,CO
239524,NPS,Mesa Verde National Park,WETHERILL3,1994,Lightning,0.1,A,37.2167,-108.534,CO
239525,NPS,Mesa Verde National Park,MOCCASIN 5,1994,Lightning,0.1,A,37.25,-108.434,CO
239526,NPS,Mesa Verde National Park,FOUR WAY 1,1994,Lightning,0.1,A,37.1833,-108.484,CO
239527,NPS,Mesa Verde National Park,PARK 4,1994,Lightning,0.1,A,37.1667,-108.4506,CO
239528,NPS,Mesa Verde National Park,MOCCASIN 6,1994,Lightning,0.1,A,37.1833,-108.434,CO
239529,NPS,Mesa Verde National Park,LONG MESA3,1994,Lightning,0.1,A,37.2,-108.5006,CO
239530,NPS,Mesa Verde National Park,BALCONY,1994,Lightning,0.1,A,37.1667,-108.4506,CO
239531,NPS,Mesa Verde National Park,AQUEDUCT,1994,Lightning,0.1,A,37.3,-108.4006,CO
239532,NPS,Mesa Verde National Park,POWERLINE,1994,Lightning,0.1,A,37.2833,-108.5006,CO
239533,NPS,Mesa Verde National Park,FRINK,1994,Lightning,0.1,A,37.2833,-108.5006,CO
239534,NPS,Mesa Verde National Park,AQUEDUCT 2,1994,Lightning,0.1,A,37.3,-108.4006,CO
239535,NPS,Mesa Verde National Park,CHAPIN 10,1994,Lightning,0.1,A,37.2167,-108.5006,CO
239536,NPS,Mesa Verde National Park,PULPIT,1994,Lightning,0.1,A,37.2667,-108.6006,CO
239537,NPS,Mesa Verde National Park,LEWIS 2,1994,Lightning,0.1,A,37.1167,-108.4173,CO
239538,NPS,Mesa Verde National Park,ENTRANCE 2,1994,Lightning,0.1,A,37.3333,-108.4173,CO
239539,NPS,Mesa Verde National Park,CHAPIN 11,1994,Lightning,0.1,A,37.2333,-108.5006,CO
239540,NPS,Mesa Verde National Park,CHAPIN 12,1994,Lightning,0.1,A,37.15,-108.484,CO
239541,NPS,Mesa Verde National Park,PARK 2,1995,Lightning,0.1,A,37.2075,-108.4756,CO
239542,NPS,Mesa Verde National Park,PARK 3,1995,Lightning,0.1,A,37.2292,-108.4751,CO
239543,NPS,Mesa Verde National Park,PARK 1,1995,Lightning,0.1,A,37.1847,-108.4684,CO
239544,NPS,Mesa Verde National Park,PARK 5,1995,Lightning,0.1,A,37.2083,-108.5006,CO
239545,NPS,Mesa Verde National Park,CEDAR TREE,1995,Lightning,0.1,A,37.2083,-108.5006,CO
239546,NPS,Mesa Verde National Park,PARK 4,1995,Lightning,0.1,A,37.2083,-108.5006,CO
239547,NPS,Mesa Verde National Park,CHAPIN 1,1995,Lightning,0.1,A,37.225,-108.5145,CO
239548,NPS,Mesa Verde National Park,MILLION,1995,Lightning,0.1,A,37.2083,-108.5006,CO
239549,NPS,Mesa Verde National Park,SODA POINT,1995,Lightning,0.1,A,37.1667,-108.5006,CO
239550,NPS,Mesa Verde National Park,ENTRANCE,1995,Lightning,0.2,A,37.3458,-108.4145,CO
239551,NPS,Mesa Verde National Park,PARK 6,1995,Lightning,0.1,A,37.1917,-108.4756,CO
239552,NPS,Mesa Verde National Park,PARK 7,1995,Lightning,0.1,A,37.2083,-108.4673,CO
239553,NPS,Mesa Verde National Park,ENTRANCE 2,1995,Lightning,0.1,A,37.3417,-108.4173,CO
239554,NPS,Mesa Verde National Park,WETHERILL1,1995,Lightning,0.1,A,37.1833,-108.5423,CO
239555,NPS,Mesa Verde National Park,FEWKES CYN,1995,Lightning,0.1,A,37.1667,-108.5006,CO
239556,NPS,Mesa Verde National Park,WHITES,1995,Lightning,1.3,B,37.2375,-108.3798,CO
239557,NPS,Mesa Verde National Park,WATERS,1995,Lightning,0.1,A,37.25,-108.3756,CO
239558,NPS,Mesa Verde National Park,MOCCASIN 1,1995,Lightning,0.1,A,37.2336,-108.4587,CO
239559,NPS,Mesa Verde National Park,NAVAJO 1,1995,Lightning,0.3,B,37.2083,-108.5423,CO
239560,NPS,Mesa Verde National Park,PRATER,1995,Lightning,0.1,A,37.2525,-108.4179,CO
239561,NPS,Mesa Verde National Park,PARK POINT,1995,Miscellaneous,0.1,A,37.2811,-108.462,CO
239562,NPS,Mesa Verde National Park,MOCCASIN1,1996,Lightning,0.1,A,37.2083,-108.4256,CO
239563,NPS,Mesa Verde National Park,BONEYARD,1996,Lightning,0.1,A,37.2042,-108.4881,CO
239564,NPS,Mesa Verde National Park,WETHERILL1,1996,Lightning,0.1,A,37.2,-108.5423,CO
239565,NPS,Mesa Verde National Park,PRATER,1996,Lightning,0.2,A,37.2681,-108.4173,CO
239566,NPS,Mesa Verde National Park,MOCCASIN 2,1996,Lightning,0.1,A,37.2167,-108.459,CO
239567,NPS,Mesa Verde National Park,POWERLINE3,1996,Lightning,0.1,A,37.2972,-108.5123,CO
239568,NPS,Mesa Verde National Park,PARK MESA1,1996,Lightning,0.1,A,37.2142,-108.482,CO
239569,NPS,Mesa Verde National Park,LIL'MOCCAS,1996,Lightning,0.1,A,37.23,-108.4356,CO
239570,NPS,Mesa Verde National Park,MOCCASIN3,1996,Lightning,0.1,A,37.2333,-108.4506,CO
239571,NPS,Mesa Verde National Park,HELIBASE,1996,Lightning,0.2,A,37.1667,-108.5006,CO
239572,NPS,Mesa Verde National Park,N.E. MOCCA,1996,Lightning,0.5,B,37.2083,-108.4256,CO
239573,NPS,Mesa Verde National Park,WEBER,1996,Lightning,0.3,B,37.2583,-108.3409,CO
239574,NPS,Mesa Verde National Park,S.WETHERIL,1996,Lightning,0.1,A,37.175,-108.509,CO
239575,NPS,Mesa Verde National Park,CHAPIN 1,1996,Lightning,0.1,A,37.2,-108.484,CO
239576,NPS,Mesa Verde National Park,N. WETHERL,1996,Lightning,0.1,A,37.2089,-108.5423,CO
239577,NPS,Mesa Verde National Park,RUINS RD.,1996,Lightning,0.1,A,37.175,-108.5006,CO
239578,NPS,Mesa Verde National Park,WILDHORSE,1996,Lightning,0.1,A,37.1833,-108.5506,CO
239579,NPS,Mesa Verde National Park,BONEAWL,1996,Lightning,0.1,A,37.1556,-108.4456,CO
239580,NPS,Mesa Verde National Park,PARK MESA2,1996,Lightning,0.1,A,37.2417,-108.509,CO
239581,NPS,Mesa Verde National Park,PIT HOUSE,1996,Lightning,0.1,A,37.2,-108.509,CO
239582,NPS,Mesa Verde National Park,CHAPIN 2,1996,Lightning,0.3,B,37.2083,-108.5006,CO
239583,NPS,Mesa Verde National Park,CHAPIN3,1996,Miscellaneous,0.2,A,37.2256,-108.4979,CO
239584,NPS,Mesa Verde National Park,MONTEZUMA,1996,Miscellaneous,0.2,A,37.2969,-108.442,CO
239585,NPS,Mesa Verde National Park,PARK #3,1996,Lightning,0.1,A,37.2333,-108.459,CO
239586,NPS,Mesa Verde National Park,PARK5,1996,Lightning,0.1,A,37.2925,-108.3562,CO
239587,NPS,Mesa Verde National Park,PARK4,1996,Lightning,0.1,A,37.23377,-108.46911,CO
