NWCG REPORTING AGENCY,NWCG REPORTING UNIT NAME,FIRE NAME,FIRE YEAR,STAT CAUSE DESCR,FIRE SIZE,FIRE SIZE CLASS,LATITUDE,LONGITUDE,STATE
NPS,Denali National Park & Preserve,MOOSE CRK1,1993,Lightning,11249.0,G,63.6828,-151.0856,AK
NPS,Denali National Park & Preserve,TOLKAT RV,1993,Lightning,3554.0,F,63.9162,-150.119,AK
NPS,Denali National Park & Preserve,KANTISHNA,1996,Miscellaneous,1.0,B,63.5242,-150.9612,AK
NPS,Denali National Park & Preserve,DEPOT,1997,Smoking,0.1,A,63.7359,-148.914,AK
NPS,Denali National Park & Preserve,HOTEL,1997,Smoking,0.1,A,63.7162,-148.9023,AK
NPS,Denali National Park & Preserve,LIL CARIBO,1997,Lightning,108.0,D,63.8517,-150.3543,AK
NPS,Denali National Park & Preserve,RUTH,1997,Lightning,100.0,D,62.6542,-150.3539,AK
NPS,Denali National Park & Preserve,MONTANA CK,1998,Lightning,1.0,B,63.7143,-148.8276,AK
NPS,Denali National Park & Preserve,TOUR BUS,1998,Equipment Use,0.3,B,63.7304,-149.319,AK
NPS,Gates of the Arctic National Park & Preserve,KALULUKTOK,1999,Lightning,80.0,C,67.2817,-154.5708,AK
NPS,Glacier Bay National Park & Preserve,EXCURSION,1993,Campfire,0.1,A,58.4338,-135.4865,AK
NPS,Katmai National Park & Preserve,AMALIK BAY,1993,Debris Burning,6.0,B,58.0993,-154.5355,AK
NPS,Katmai National Park & Preserve,GROSVENOR,1997,Campfire,10.0,C,58.666,-155.4521,AK
NPS,Lake Clark National Park & Preserve,VANDERPOOL,1997,Structure,0.2,A,60.6327,-153.9023,AK
NPS,Wrangell-St. Elias National Park & Preserve,KLAWASI,1993,Lightning,0.1,A,62.0329,-145.3521,AK
NPS,Wrangell-St. Elias National Park & Preserve,CIR#930145,1993,Arson,0.1,A,61.0301,-142.1437,AK
NPS,Yukon-Charley Rivers National Preserve,MONTAUK,1999,Lightning,300.0,E,65.1678,-141.5503,AK
NPS,Casa Grande National Monument,JAMES,1992,Fireworks,0.1,A,32.99302,-111.53117,AZ
NPS,Chiricahua National Monument,ORGAN,1993,Lightning,0.1,A,32.02005,-109.35394,AZ
NPS,Chiricahua National Monument,ELLERBY,1994,Lightning,1.0,B,31.98374,-109.37946,AZ
NPS,Chiricahua National Monument,QUILLIAH,1994,Lightning,0.1,A,32.15155,-109.46814,AZ
NPS,Chiricahua National Monument,BONEYARD,1994,Campfire,0.1,A,32.00299,-109.36915,AZ
NPS,Chiricahua National Monument,CEMETARY,1994,Lightning,0.4,B,32.02903,-109.46497,AZ
NPS,Chiricahua National Monument,PICKET #1,1995,Lightning,0.1,A,32.02714,-109.37562,AZ
NPS,Chiricahua National Monument,MOGUI,1996,Smoking,10.0,C,32.07548,-109.51574,AZ
NPS,Chiricahua National Monument,JESSIEJAME,1996,Lightning,1.5,B,31.98602,-109.31322,AZ
NPS,Chiricahua National Monument,JJCANYON,1997,Campfire,0.1,A,31.98604,-109.31724,AZ
NPS,Chiricahua National Monument,SITE13,1997,Campfire,0.1,A,32.01136,-109.35595,AZ
NPS,Chiricahua National Monument,CHIMNEY,1997,Campfire,0.1,A,32.07356,-109.35998,AZ
NPS,Chiricahua National Monument,KOLMINE,1997,Campfire,0.1,A,32.03056,-109.31884,AZ
NPS,Chiricahua National Monument,TRASHCAN,1997,Miscellaneous,0.1,A,32.00554,-109.35614,AZ
NPS,Chiricahua National Monument,BONITAPARK,1997,Debris Burning,241.0,D,32.0326,-109.3249,AZ
NPS,Chiricahua National Monument,WILLOW,1997,Lightning,7.0,B,32.144,-109.37841,AZ
NPS,Chiricahua National Monument,MOGUL,1997,Lightning,300.0,E,32.13181,-109.56711,AZ
NPS,Chiricahua National Monument,AGAVE,1997,Lightning,0.1,A,32.02258,-109.31372,AZ
NPS,Chiricahua National Monument,RIDGELINE,1997,Lightning,0.1,A,32.03261,-109.31304,AZ
NPS,Chiricahua National Monument,CHARCOAL,1999,Campfire,0.1,A,32.0085,-109.37496,AZ
NPS,Coronado National Memorial,MONTEZUMA,1993,Lightning,75.0,C,31.35177,-110.25064,AZ
NPS,Coronado National Memorial,LIGHTNING1,1994,Lightning,0.1,A,31.35177,-110.25064,AZ
NPS,Coronado National Memorial,BOUNDARY-E,1994,Lightning,0.2,A,31.3351,-110.21731,AZ
NPS,Coronado National Memorial,PINYON,1997,Lightning,0.1,A,31.34412,-110.28275,AZ
NPS,Grand Canyon National Park,PATTY,1992,Campfire,0.1,A,36.09819,-112.09444,AZ
NPS,Grand Canyon National Park,ONEILL,1992,Campfire,0.1,A,36.06485,-112.2,AZ
NPS,Grand Canyon National Park,SYPHER,1992,Campfire,0.1,A,36.7292,-112.0882,AZ
NPS,Grand Canyon National Park,JH,1992,Campfire,0.1,A,36.09819,-112.09167,AZ
NPS,Grand Canyon National Park,P CREEK,1992,Campfire,0.1,A,36.11485,-112.0875,AZ
NPS,Grand Canyon National Park,JF,1992,Campfire,0.1,A,36.10652,-112.00834,AZ
NPS,Grand Canyon National Park,KORLE,1992,Campfire,0.1,A,36.04819,-112.12084,AZ
NPS,Grand Canyon National Park,REID,1992,Campfire,0.1,A,36.05931,-112.21111,AZ
NPS,Grand Canyon National Park,HALE,1992,Campfire,0.1,A,36.04819,-112.11666,AZ
NPS,Grand Canyon National Park,HOTSPINGS,1992,Equipment Use,0.1,A,36.00652,-112.14583,AZ
NPS,Grand Canyon National Park,SCHOOL,1992,Smoking,0.1,A,36.04819,-112.13334,AZ
NPS,Grand Canyon National Park,HOPI,1992,Campfire,0.1,A,36.07319,-112.175,AZ
NPS,Grand Canyon National Park,HADES,1992,Lightning,0.4,B,36.26068,-112.08334,AZ
NPS,Grand Canyon National Park,PICNIC,1992,Campfire,0.1,A,36.03292,-112.075,AZ
NPS,Grand Canyon National Park,315,1992,Campfire,0.1,A,36.04819,-112.12084,AZ
NPS,Grand Canyon National Park,MATHER,1992,Campfire,0.1,A,36.04819,-112.12084,AZ
NPS,Grand Canyon National Park,GROUP,1992,Campfire,0.1,A,36.04819,-112.11666,AZ
NPS,Grand Canyon National Park,168,1992,Campfire,0.1,A,36.04819,-112.11805,AZ
NPS,Grand Canyon National Park,RUSS,1992,Campfire,0.1,A,36.06485,-112.2,AZ
NPS,Grand Canyon National Park,SPRING,1992,Lightning,0.1,A,36.28152,-112.21667,AZ
NPS,Grand Canyon National Park,MAY,1992,Lightning,0.1,A,36.28152,-112.21667,AZ
NPS,Grand Canyon National Park,FRIDAY,1992,Campfire,0.1,A,36.19819,-112.06667,AZ
NPS,Grand Canyon National Park,HERMIT,1992,Campfire,0.1,A,36.08152,-112.2,AZ
NPS,Grand Canyon National Park,JUNE,1992,Lightning,0.4,B,36.4,-112.1341,AZ
NPS,Grand Canyon National Park,ASPEN 19,1992,Campfire,0.1,A,36.01486,-112.15001,AZ
NPS,Grand Canyon National Park,MORAN,1992,Lightning,0.5,B,36.01486,-111.93334,AZ
NPS,Grand Canyon National Park,RANGE,1992,Campfire,0.4,B,36.03153,-112.08333,AZ
NPS,Grand Canyon National Park,CENTURY,1992,Lightning,0.1,A,36.04819,-112.18334,AZ
NPS,Grand Canyon National Park,TRASH CAN,1992,Debris Burning,0.1,A,36.06486,-112.11667,AZ
NPS,Grand Canyon National Park,SUDDATH,1992,Campfire,0.1,A,36.06532,-112.11829,AZ
NPS,Grand Canyon National Park,DEAD,1992,Campfire,0.1,A,36.09819,-112.16667,AZ
NPS,Grand Canyon National Park,DEAD 2,1992,Campfire,0.1,A,36.09819,-112.16667,AZ
NPS,Grand Canyon National Park,OLSON,1992,Campfire,0.1,A,36.06486,-112.16667,AZ
NPS,Grand Canyon National Park,LAME,1992,Campfire,0.1,A,36.04819,-112.13334,AZ
NPS,Grand Canyon National Park,ASPEN 9,1992,Campfire,0.1,A,36.03153,-112.1,AZ
NPS,Grand Canyon National Park,LOST,1992,Lightning,0.1,A,36.03153,-112.25001,AZ
NPS,Grand Canyon National Park,TWO,1992,Campfire,0.8,B,36.3333,-112.3674,AZ
NPS,Grand Canyon National Park,BEACH,1992,Campfire,0.1,A,36.08153,-112.08334,AZ
NPS,Grand Canyon National Park,R&R,1992,Campfire,0.1,A,36.03153,-112.08333,AZ
NPS,Grand Canyon National Park,OUTLET,1992,Lightning,0.5,B,36.23152,-112.1,AZ
NPS,Grand Canyon National Park,SNAG,1992,Lightning,1.8,B,36.28152,-112.2,AZ
NPS,Grand Canyon National Park,HAPPY,1992,Campfire,0.1,A,36.08153,-112.08334,AZ
NPS,Grand Canyon National Park,RIVER,1992,Campfire,0.1,A,36.08153,-112.08334,AZ
NPS,Grand Canyon National Park,TUWEEP,1992,Lightning,0.1,A,36.24819,-113.01667,AZ
NPS,Grand Canyon National Park,HUTTON,1992,Campfire,0.1,A,36.08153,-112.08334,AZ
NPS,Grand Canyon National Park,CULVERT,1992,Children,0.1,A,36.06486,-112.16667,AZ
NPS,Grand Canyon National Park,DAILY,1992,Campfire,0.1,A,36.04819,-111.81666,AZ
NPS,Grand Canyon National Park,YAGER,1992,Campfire,0.1,A,36.08153,-112.1,AZ
NPS,Grand Canyon National Park,HEARST,1992,Lightning,0.1,A,35.96486,-112.0,AZ
NPS,Grand Canyon National Park,WOODRUFF,1992,Campfire,0.1,A,36.04819,-112.11666,AZ
NPS,Grand Canyon National Park,FIR,1992,Campfire,0.1,A,36.03153,-112.15,AZ
NPS,Grand Canyon National Park,WEST,1992,Campfire,0.1,A,36.06486,-112.15,AZ
NPS,Grand Canyon National Park,RIM,1992,Campfire,0.1,A,36.06486,-112.15,AZ
NPS,Grand Canyon National Park,SADDLE,1992,Lightning,0.1,A,36.33152,-112.33334,AZ
NPS,Grand Canyon National Park,FIRE POINT,1992,Lightning,0.1,A,36.33152,-112.33334,AZ
NPS,Grand Canyon National Park,IKES,1992,Lightning,0.1,A,36.33152,-112.25,AZ
NPS,Grand Canyon National Park,DRAGON,1992,Lightning,0.1,A,36.26485,-112.15,AZ
NPS,Grand Canyon National Park,CASTLE,1992,Lightning,0.1,A,36.33152,-112.31667,AZ
NPS,Grand Canyon National Park,SWAMP,1992,Lightning,0.2,A,36.33152,-112.31667,AZ
NPS,Grand Canyon National Park,BIG,1992,Lightning,0.1,A,36.34819,-112.25,AZ
NPS,Grand Canyon National Park,PIASTUCK,1992,Campfire,0.1,A,35.9982,-112.11667,AZ
NPS,Grand Canyon National Park,SHINUMO,1992,Lightning,0.1,A,36.33152,-112.26667,AZ
NPS,Grand Canyon National Park,LANCELOT,1992,Lightning,0.3,B,36.29818,-112.25,AZ
NPS,Grand Canyon National Park,TIYO,1992,Lightning,0.1,A,36.08108,-112.13189,AZ
NPS,Grand Canyon National Park,HEARTY,1992,Campfire,0.1,A,36.06486,-112.1,AZ
NPS,Grand Canyon National Park,MARCUS,1992,Campfire,0.1,A,36.06486,-112.1,AZ
NPS,Grand Canyon National Park,GRAMA,1992,Lightning,0.2,A,36.19819,-112.23333,AZ
NPS,Grand Canyon National Park,GRAMPA,1992,Lightning,0.3,B,35.96486,-112.03334,AZ
NPS,Grand Canyon National Park,PAINT CAN,1992,Lightning,0.2,A,36.29818,-112.25,AZ
NPS,Grand Canyon National Park,E-3,1992,Campfire,0.1,A,36.04819,-112.13334,AZ
NPS,Grand Canyon National Park,P,1992,Campfire,0.1,A,36.04819,-112.11666,AZ
NPS,Grand Canyon National Park,BRO,1992,Miscellaneous,0.1,A,36.04819,-112.11666,AZ
NPS,Grand Canyon National Park,LIL SIS,1992,Miscellaneous,0.1,A,36.04819,-112.11666,AZ
NPS,Grand Canyon National Park,CRYSTAL,1992,Lightning,0.1,A,36.26485,-112.16666,AZ
NPS,Grand Canyon National Park,CROWLEY,1992,Lightning,0.1,A,36.36485,-112.51667,AZ
NPS,Grand Canyon National Park,JUNIPER135,1992,Campfire,0.1,A,36.03153,-112.1,AZ
NPS,Grand Canyon National Park,OUT,1992,Campfire,0.1,A,36.03153,-112.1,AZ
NPS,Grand Canyon National Park,PAT 124,1992,Campfire,0.1,A,36.03154,-112.099,AZ
NPS,Grand Canyon National Park,HALE 95,1992,Campfire,0.1,A,36.03153,-112.1,AZ
NPS,Grand Canyon National Park,STOMP 2,1992,Miscellaneous,0.1,A,36.19819,-112.06667,AZ
NPS,Grand Canyon National Park,HALE 3,1992,Campfire,0.1,A,36.03153,-112.1,AZ
NPS,Grand Canyon National Park,HALE 21,1992,Campfire,0.1,A,36.03153,-112.1,AZ
NPS,Grand Canyon National Park,OAK 79,1992,Campfire,0.1,A,36.04819,-112.11666,AZ
NPS,Grand Canyon National Park,GIBSON,1992,Campfire,0.1,A,36.04819,-112.18334,AZ
NPS,Grand Canyon National Park,FELDMAN,1992,Campfire,0.1,A,36.09819,-112.1,AZ
NPS,Grand Canyon National Park,MYSTERY,1992,Campfire,0.1,A,36.03153,-112.11667,AZ
NPS,Grand Canyon National Park,LINDSTROM,1993,Campfire,0.1,A,36.05236,-112.11667,AZ
NPS,Grand Canyon National Park,SAND DUNES,1993,Campfire,0.1,A,36.10235,-112.09583,AZ
NPS,Grand Canyon National Park,MILLER,1993,Campfire,0.1,A,36.03152,-112.125,AZ
NPS,Grand Canyon National Park,YAVAPAI,1993,Campfire,0.1,A,36.06486,-112.12501,AZ
NPS,Grand Canyon National Park,LUPLOW,1993,Campfire,0.1,A,36.03569,-111.83333,AZ
NPS,Grand Canyon National Park,ANIMAL,1993,Campfire,0.1,A,36.03153,-112.15,AZ
NPS,Grand Canyon National Park,BICYCLE,1993,Campfire,0.1,A,36.03986,-112.18611,AZ
NPS,Grand Canyon National Park,AFTERNOON,1993,Campfire,0.1,A,36.04125,-112.1875,AZ
NPS,Grand Canyon National Park,HERMIT,1993,Lightning,0.1,A,36.04819,-112.21667,AZ
NPS,Grand Canyon National Park,TRACK,1993,Lightning,0.1,A,36.01486,-112.15001,AZ
NPS,Grand Canyon National Park,PIPO,1993,Lightning,0.2,A,35.9667,-112.5341,AZ
NPS,Grand Canyon National Park,SYPHER,1993,Campfire,0.1,A,36.03153,-112.1,AZ
NPS,Grand Canyon National Park,SAGE4,1993,Campfire,0.1,A,36.03153,-112.1,AZ
NPS,Grand Canyon National Park,MAYES,1993,Campfire,0.1,A,36.49818,-111.86666,AZ
NPS,Grand Canyon National Park,TENMILE,1993,Campfire,0.1,A,36.74817,-111.66667,AZ
NPS,Grand Canyon National Park,SAPIN,1993,Campfire,0.1,A,36.00236,-111.88333,AZ
NPS,Grand Canyon National Park,ACOSTA,1993,Campfire,0.1,A,36.00653,-111.88333,AZ
NPS,Grand Canyon National Park,FORCINE,1993,Campfire,0.1,A,36.00292,-111.88334,AZ
NPS,Grand Canyon National Park,E-3,1993,Campfire,0.1,A,36.03152,-112.06667,AZ
NPS,Grand Canyon National Park,EAST,1993,Campfire,0.1,A,36.03152,-112.06667,AZ
NPS,Grand Canyon National Park,RIM,1993,Campfire,0.1,A,36.03152,-112.06667,AZ
NPS,Grand Canyon National Park,POWER,1993,Campfire,0.1,A,36.04819,-112.2,AZ
NPS,Grand Canyon National Park,E-4,1993,Campfire,0.1,A,35.9982,-112.11667,AZ
NPS,Grand Canyon National Park,WRANGLER,1993,Campfire,0.1,A,36.0482,-112.08334,AZ
NPS,Grand Canyon National Park,CEREMONIAL,1993,Campfire,0.1,A,36.06486,-112.06667,AZ
NPS,Grand Canyon National Park,KARLY,1993,Lightning,0.1,A,36.04264,-112.10194,AZ
NPS,Grand Canyon National Park,FATHER,1993,Lightning,0.3,B,36.04791,-112.06389,AZ
NPS,Grand Canyon National Park,CACTUS,1993,Campfire,0.1,A,36.07319,-112.04445,AZ
NPS,Grand Canyon National Park,ROAMING,1993,Campfire,0.1,A,36.03986,-111.81667,AZ
NPS,Grand Canyon National Park,MIRACLE,1993,Campfire,0.1,A,36.04792,-112.18334,AZ
NPS,Grand Canyon National Park,PICKLEHEAD,1993,Campfire,0.1,A,36.01486,-112.18333,AZ
NPS,Grand Canyon National Park,PUNKINHEAD,1993,Campfire,0.1,A,36.03153,-112.15,AZ
NPS,Grand Canyon National Park,MATHER,1993,Campfire,0.1,A,36.04263,-112.11389,AZ
NPS,Grand Canyon National Park,JUNIPER120,1993,Campfire,0.1,A,36.04153,-112.11166,AZ
NPS,Grand Canyon National Park,JUNIPER181,1993,Campfire,0.1,A,36.04153,-112.11166,AZ
NPS,Grand Canyon National Park,OAK207,1993,Campfire,0.1,A,36.04443,-112.11267,AZ
NPS,Grand Canyon National Park,PINE268,1993,Campfire,0.1,A,36.04152,-112.11111,AZ
NPS,Grand Canyon National Park,GRAVEL,1993,Campfire,0.1,A,36.04819,-112.18334,AZ
NPS,Grand Canyon National Park,CLINIC-2,1993,Campfire,0.1,A,36.0593,-112.2,AZ
NPS,Grand Canyon National Park,CLINIC-1,1993,Campfire,0.1,A,36.04819,-112.2,AZ
NPS,Grand Canyon National Park,JUNIPER138,1993,Campfire,0.1,A,36.04152,-112.12834,AZ
NPS,Grand Canyon National Park,ROAD,1993,Campfire,7.0,B,36.0,-112.2174,AZ
NPS,Grand Canyon National Park,ENTRANCE,1993,Campfire,0.1,A,35.99653,-112.12834,AZ
NPS,Grand Canyon National Park,SALTSHAKER,1993,Campfire,0.1,A,35.99653,-112.12834,AZ
NPS,Grand Canyon National Park,WASH,1993,Campfire,0.1,A,35.99653,-112.12834,AZ
NPS,Grand Canyon National Park,LOOP,1993,Campfire,0.1,A,35.99653,-112.12834,AZ
NPS,Grand Canyon National Park,DRIVEUP,1993,Campfire,0.1,A,36.03153,-112.08333,AZ
NPS,Grand Canyon National Park,PICNICRING,1993,Campfire,0.1,A,36.0482,-112.08334,AZ
NPS,Grand Canyon National Park,JUNIPER125,1993,Campfire,0.1,A,36.03153,-112.1,AZ
NPS,Grand Canyon National Park,HEARST,1993,Campfire,0.1,A,35.98152,-111.98334,AZ
NPS,Grand Canyon National Park,WHEREAREU,1993,Smoking,0.1,A,36.06486,-112.1,AZ
NPS,Grand Canyon National Park,WIDFORSS,1993,Campfire,0.1,A,36.19818,-112.1,AZ
NPS,Grand Canyon National Park,BASIN,1993,Campfire,0.2,A,36.28152,-112.08334,AZ
NPS,Grand Canyon National Park,BOOT,1993,Smoking,0.1,A,36.06986,-112.11166,AZ
NPS,Grand Canyon National Park,LUAU,1993,Campfire,0.1,A,36.05486,-112.075,AZ
NPS,Grand Canyon National Park,WRANGLER2,1993,Campfire,0.1,A,36.05486,-112.075,AZ
NPS,Grand Canyon National Park,IMAX,1993,Campfire,0.2,A,35.95,-112.1174,AZ
NPS,Grand Canyon National Park,WOODROW,1993,Lightning,0.1,A,36.02652,-112.165,AZ
NPS,Grand Canyon National Park,LINDBERGH,1993,Lightning,0.2,A,36.28485,-112.10001,AZ
NPS,Grand Canyon National Park,SWAMP,1993,Lightning,0.1,A,36.34319,-112.26001,AZ
NPS,Grand Canyon National Park,GUINIVERE,1993,Lightning,0.2,A,36.32985,-112.27833,AZ
NPS,Grand Canyon National Park,MORAN,1993,Lightning,0.1,A,35.99708,-111.91556,AZ
NPS,Grand Canyon National Park,GRANDVIEW,1993,Lightning,0.1,A,35.98319,-111.93333,AZ
NPS,Grand Canyon National Park,KANABOW,1993,Lightning,0.8,B,36.26985,-112.20667,AZ
NPS,Grand Canyon National Park,GREENLAND,1993,Lightning,0.1,A,36.23152,-112.01667,AZ
NPS,Grand Canyon National Park,SPRING,1993,Lightning,0.7,B,36.32985,-112.225,AZ
NPS,Grand Canyon National Park,SHIP,1993,Lightning,0.1,A,35.9832,-111.96833,AZ
NPS,Grand Canyon National Park,MARIA,1993,Lightning,0.1,A,36.05486,-112.2,AZ
NPS,Grand Canyon National Park,MILKCREEK,1993,Lightning,0.1,A,36.26485,-112.11667,AZ
NPS,Grand Canyon National Park,MEADOW,1993,Campfire,0.1,A,36.19985,-112.095,AZ
NPS,Grand Canyon National Park,ATOKO,1993,Lightning,0.2,A,36.19985,-111.95167,AZ
NPS,Grand Canyon National Park,DRIP,1993,Lightning,0.1,A,36.05486,-112.23666,AZ
NPS,Grand Canyon National Park,TUWEEP,1993,Campfire,0.1,A,36.21152,-113.06501,AZ
NPS,Grand Canyon National Park,WILLIS,1993,Campfire,0.1,A,36.22652,-113.065,AZ
NPS,Grand Canyon National Park,MCARTHUR,1993,Campfire,0.1,A,36.21152,-113.06501,AZ
NPS,Grand Canyon National Park,CANNON,1993,Campfire,0.1,A,36.22652,-113.065,AZ
NPS,Grand Canyon National Park,INDIAN,1993,Campfire,0.1,A,36.06986,-112.12833,AZ
NPS,Grand Canyon National Park,GARDEN,1993,Miscellaneous,7.5,B,36.08152,-112.13334,AZ
NPS,Grand Canyon National Park,PORKCHOP,1993,Lightning,0.1,A,36.29985,-112.18833,AZ
NPS,Grand Canyon National Park,BOUNDARY,1993,Lightning,0.1,A,36.34319,-112.22639,AZ
NPS,Grand Canyon National Park,NORTHWEST3,1993,Debris Burning,1000.0,F,36.33152,-112.25,AZ
NPS,Grand Canyon National Park,WOOD,1994,Campfire,0.1,A,36.01152,-111.96833,AZ
NPS,Grand Canyon National Park,MCCARY,1994,Campfire,0.1,A,36.01152,-111.96833,AZ
NPS,Grand Canyon National Park,CASHMAN,1994,Campfire,0.1,A,36.7315,-111.66667,AZ
NPS,Grand Canyon National Park,GHOST,1994,Miscellaneous,0.1,A,35.7833,-114.4675,AZ
NPS,Grand Canyon National Park,FRIEBEN,1994,Campfire,0.1,A,36.04153,-112.11166,AZ
NPS,Grand Canyon National Park,PUB,1994,Structure,0.1,A,36.05486,-112.14667,AZ
NPS,Grand Canyon National Park,SMITH,1994,Campfire,0.1,A,35.8117,-111.6507,AZ
NPS,Grand Canyon National Park,ZENOBI,1994,Campfire,0.1,A,35.99708,-112.04,AZ
NPS,Grand Canyon National Park,MCMILLAN,1994,Campfire,0.1,A,36.80818,-111.65,AZ
NPS,Grand Canyon National Park,ORTON,1994,Campfire,0.1,A,36.76484,-111.66834,AZ
NPS,Grand Canyon National Park,RING,1994,Campfire,0.1,A,36.02652,-112.18334,AZ
NPS,Grand Canyon National Park,COLLINS,1994,Campfire,0.1,A,36.09819,-112.095,AZ
NPS,Grand Canyon National Park,PULLEY,1994,Campfire,0.1,A,36.09819,-112.09333,AZ
NPS,Grand Canyon National Park,JESSOP,1994,Campfire,0.1,A,36.77984,-111.65,AZ
NPS,Grand Canyon National Park,SILVA,1994,Campfire,0.1,A,36.04819,-112.11666,AZ
NPS,Grand Canyon National Park,PRICE,1994,Campfire,0.1,A,36.03153,-112.18333,AZ
NPS,Grand Canyon National Park,BA TRAIL,1994,Campfire,0.1,A,36.06485,-112.13333,AZ
NPS,Grand Canyon National Park,MATHER 22,1994,Campfire,0.1,A,36.03152,-112.13333,AZ
NPS,Grand Canyon National Park,TANK,1994,Miscellaneous,0.2,A,36.03153,-112.14167,AZ
NPS,Grand Canyon National Park,KLAPARDA,1994,Campfire,0.1,A,36.0482,-112.08334,AZ
NPS,Grand Canyon National Park,OPS,1994,Lightning,0.1,A,36.04819,-112.15,AZ
NPS,Grand Canyon National Park,DEER CREEK,1994,Debris Burning,0.1,A,36.38985,-112.50416,AZ
NPS,Grand Canyon National Park,TANK #2,1994,Miscellaneous,0.1,A,36.04819,-112.11666,AZ
NPS,Grand Canyon National Park,PEARRE,1994,Debris Burning,0.2,A,36.39819,-112.51667,AZ
NPS,Grand Canyon National Park,ROWSER,1994,Miscellaneous,0.1,A,36.04819,-112.11666,AZ
NPS,Grand Canyon National Park,TANK #3,1994,Miscellaneous,0.1,A,36.04819,-112.11666,AZ
NPS,Grand Canyon National Park,HEWITT,1994,Campfire,0.1,A,35.96486,-111.96666,AZ
NPS,Grand Canyon National Park,KEATING,1994,Campfire,0.1,A,36.8333,-111.6674,AZ
NPS,Grand Canyon National Park,ROWSER #2,1994,Miscellaneous,0.1,A,36.04819,-112.11666,AZ
NPS,Grand Canyon National Park,TRAILER,1994,Miscellaneous,0.2,A,36.04819,-112.125,AZ
NPS,Grand Canyon National Park,YAVAPAI,1994,Miscellaneous,0.2,A,36.04819,-112.11666,AZ
NPS,Grand Canyon National Park,ROWSER #3,1994,Miscellaneous,0.1,A,36.04819,-112.13334,AZ
NPS,Grand Canyon National Park,NINTH,1994,Miscellaneous,0.1,A,36.04819,-112.11666,AZ
NPS,Grand Canyon National Park,BUNKHOUSE,1994,Smoking,0.1,A,36.09819,-112.09167,AZ
NPS,Grand Canyon National Park,DEER,1994,Debris Burning,95.0,C,36.4179,-112.5,AZ
NPS,Grand Canyon National Park,PAYA,1994,Campfire,0.1,A,36.03153,-112.15,AZ
NPS,Grand Canyon National Park,LIGHT,1994,Campfire,0.1,A,36.09819,-112.1,AZ
NPS,Grand Canyon National Park,ELEPHANT,1994,Lightning,0.1,A,36.33152,-112.16666,AZ
NPS,Grand Canyon National Park,SWEETWATER,1994,Lightning,0.2,A,36.04819,-112.18334,AZ
NPS,Grand Canyon National Park,HERMIT,1994,Lightning,0.1,A,36.04819,-112.21667,AZ
NPS,Grand Canyon National Park,ENTRANCE,1994,Lightning,0.6,B,36.01486,-112.11667,AZ
NPS,Grand Canyon National Park,GRAVIL PIT,1994,Lightning,3.0,B,36.04819,-112.18334,AZ
NPS,Grand Canyon National Park,EREMITA,1994,Lightning,0.1,A,36.04819,-112.25,AZ
NPS,Grand Canyon National Park,GARAGE,1994,Smoking,0.1,A,36.04819,-112.13334,AZ
NPS,Grand Canyon National Park,YUMA,1994,Lightning,0.1,A,36.11486,-112.36667,AZ
NPS,Grand Canyon National Park,MESCALERO,1994,Lightning,0.1,A,36.16486,-112.48333,AZ
NPS,Grand Canyon National Park,MORAN,1994,Campfire,0.1,A,35.9982,-111.93333,AZ
NPS,Grand Canyon National Park,SIGN,1994,Campfire,0.1,A,35.99819,-112.13333,AZ
NPS,Grand Canyon National Park,SIDE,1994,Campfire,0.1,A,36.04819,-112.2,AZ
NPS,Grand Canyon National Park,POST,1994,Campfire,0.1,A,36.04819,-112.2,AZ
NPS,Grand Canyon National Park,TELE,1994,Campfire,0.1,A,36.04819,-112.2,AZ
NPS,Grand Canyon National Park,PHONE,1994,Campfire,0.1,A,36.04819,-112.2,AZ
NPS,Grand Canyon National Park,RAIL,1994,Campfire,0.1,A,36.04819,-112.2,AZ
NPS,Grand Canyon National Park,TIE,1994,Campfire,0.1,A,36.04819,-112.2,AZ
NPS,Grand Canyon National Park,CHAR,1994,Campfire,0.1,A,36.16485,-112.11667,AZ
NPS,Grand Canyon National Park,SKY,1994,Campfire,0.1,A,36.16485,-112.11667,AZ
NPS,Grand Canyon National Park,ACE,1994,Campfire,0.1,A,36.16485,-112.11667,AZ
NPS,Grand Canyon National Park,PICK,1994,Campfire,0.1,A,36.16485,-112.11667,AZ
NPS,Grand Canyon National Park,ROPE,1994,Campfire,0.1,A,36.16485,-112.11667,AZ
NPS,Grand Canyon National Park,BREW,1994,Campfire,0.1,A,36.16485,-112.11667,AZ
NPS,Grand Canyon National Park,LOT,1994,Campfire,0.1,A,35.99819,-112.13333,AZ
NPS,Grand Canyon National Park,ROWE WELL,1994,Lightning,0.1,A,36.03153,-112.18333,AZ
NPS,Grand Canyon National Park,TIYO POINT,1994,Lightning,0.1,A,36.33152,-112.1,AZ
NPS,Grand Canyon National Park,SADDLE,1994,Lightning,0.1,A,36.21486,-113.05,AZ
NPS,Grand Canyon National Park,VULCAN,1994,Lightning,0.1,A,36.19819,-113.05,AZ
NPS,Grand Canyon National Park,GRANDVIEW,1994,Lightning,1.0,B,35.98152,-111.98334,AZ
NPS,Grand Canyon National Park,STEEP,1994,Lightning,0.1,A,36.03986,-111.83333,AZ
NPS,Grand Canyon National Park,DV,1994,Lightning,0.1,A,36.04819,-112.0,AZ
NPS,Grand Canyon National Park,JOHNSON,1994,Campfire,0.1,A,36.09819,-112.08333,AZ
NPS,Grand Canyon National Park,BACG,1994,Campfire,0.1,A,36.08152,-112.09167,AZ
NPS,Grand Canyon National Park,BASIN,1994,Lightning,0.2,A,36.26485,-112.11667,AZ
NPS,Grand Canyon National Park,BASE,1994,Campfire,0.1,A,36.04819,-112.15,AZ
NPS,Grand Canyon National Park,SPRING,1994,Lightning,0.1,A,36.31485,-112.21666,AZ
NPS,Grand Canyon National Park,LONG JIM,1994,Lightning,0.7,B,35.9982,-112.08333,AZ
NPS,Grand Canyon National Park,COUGAR,1994,Lightning,0.1,A,36.33332,-112.05073,AZ
NPS,Grand Canyon National Park,SCENIC,1994,Lightning,0.1,A,36.24819,-112.23334,AZ
NPS,Grand Canyon National Park,HADES,1994,Lightning,0.2,A,36.26485,-112.08334,AZ
NPS,Grand Canyon National Park,LOG,1994,Campfire,0.1,A,36.04819,-112.1,AZ
NPS,Grand Canyon National Park,BUDDAH,1994,Lightning,0.1,A,36.24819,-112.11667,AZ
NPS,Grand Canyon National Park,SWAMP,1994,Lightning,0.1,A,36.33152,-112.31667,AZ
NPS,Grand Canyon National Park,TIYO POINT,1994,Lightning,0.2,A,36.18152,-112.13333,AZ
NPS,Grand Canyon National Park,THOMPSON,1994,Lightning,0.5,B,36.26485,-112.05,AZ
NPS,Grand Canyon National Park,VISITOR,1994,Lightning,0.1,A,36.28152,-112.0,AZ
NPS,Grand Canyon National Park,WIDFORSS,1994,Lightning,0.1,A,36.21485,-112.08334,AZ
NPS,Grand Canyon National Park,KANABOWNIT,1994,Lightning,0.1,A,36.24819,-112.21666,AZ
NPS,Grand Canyon National Park,IMPERIAL,1994,Lightning,0.1,A,36.28152,-111.98334,AZ
NPS,Grand Canyon National Park,ZAHN,1994,Campfire,0.1,A,36.00653,-112.075,AZ
NPS,Grand Canyon National Park,BONE,1994,Lightning,0.1,A,36.24818,-112.2,AZ
NPS,Grand Canyon National Park,HONAN,1994,Lightning,3.8,B,36.11485,-111.98333,AZ
NPS,Grand Canyon National Park,ROAR,1994,Campfire,0.1,A,36.19819,-112.05,AZ
NPS,Grand Canyon National Park,CASTLE,1994,Lightning,0.1,A,36.34819,-112.3,AZ
NPS,Grand Canyon National Park,LANCELOT,1994,Lightning,0.1,A,36.31485,-112.25,AZ
NPS,Grand Canyon National Park,COCONINO,1994,Lightning,0.1,A,36.03152,-111.83333,AZ
NPS,Grand Canyon National Park,BONNER,1994,Miscellaneous,0.1,A,36.06486,-112.20834,AZ
NPS,Grand Canyon National Park,PARK,1994,Lightning,0.1,A,36.29819,-111.96667,AZ
NPS,Grand Canyon National Park,GALLON,1994,Campfire,0.1,A,36.8833,-111.8341,AZ
NPS,Grand Canyon National Park,RIDGE,1994,Lightning,0.1,A,36.33152,-112.23333,AZ
NPS,Grand Canyon National Park,CRYSTAL,1994,Lightning,0.1,A,36.27318,-112.17084,AZ
NPS,Grand Canyon National Park,RICE,1994,Campfire,0.1,A,36.04819,-112.13334,AZ
NPS,Grand Canyon National Park,MOHAVE,1994,Lightning,0.1,A,36.04819,-112.16667,AZ
NPS,Grand Canyon National Park,WALDRON,1994,Lightning,0.1,A,36.04819,-112.2,AZ
NPS,Grand Canyon National Park,SUPAI,1994,Lightning,0.1,A,36.04819,-112.15,AZ
NPS,Grand Canyon National Park,ORTIZ,1994,Campfire,0.1,A,36.01486,-111.98333,AZ
NPS,Grand Canyon National Park,DRAGON,1994,Lightning,0.3,B,36.24819,-112.18333,AZ
NPS,Grand Canyon National Park,BRAMLEY,1994,Campfire,0.1,A,36.04819,-112.11666,AZ
NPS,Grand Canyon National Park,ANGEL,1994,Lightning,0.5,B,36.19819,-112.01666,AZ
NPS,Grand Canyon National Park,GREEN,1994,Lightning,0.1,A,36.0,-112.8341,AZ
NPS,Grand Canyon National Park,BIRD,1994,Lightning,2.0,B,36.95,-112.0674,AZ
NPS,Grand Canyon National Park,SPRUCE,1994,Lightning,0.1,A,36.33152,-112.13333,AZ
NPS,Grand Canyon National Park,RAIN,1994,Lightning,0.1,A,36.01486,-112.11667,AZ
NPS,Grand Canyon National Park,TRINITY,1994,Lightning,0.1,A,36.24819,-112.11667,AZ
NPS,Grand Canyon National Park,GRAPEVINE,1994,Lightning,0.6,B,35.98152,-112.06666,AZ
NPS,Grand Canyon National Park,CAN,1994,Campfire,0.1,A,36.04819,-112.16667,AZ
NPS,Grand Canyon National Park,DUMP,1994,Campfire,0.1,A,36.04819,-112.16667,AZ
NPS,Grand Canyon National Park,WARMING,1994,Campfire,0.1,A,36.04819,-112.16667,AZ
NPS,Grand Canyon National Park,GLOBAL,1994,Campfire,0.1,A,36.04819,-112.16667,AZ
NPS,Grand Canyon National Park,GAIA,1994,Campfire,0.1,A,36.04819,-112.16667,AZ
NPS,Grand Canyon National Park,PRODUCT,1994,Campfire,0.1,A,36.04819,-112.16667,AZ
NPS,Grand Canyon National Park,SNAG,1994,Lightning,0.1,A,36.28152,-112.17501,AZ
NPS,Grand Canyon National Park,HANCE CPLX,1994,Arson,4.7,B,36.01486,-111.95,AZ
NPS,Grand Canyon National Park,GREENLAND,1994,Lightning,0.3,B,36.23152,-111.98333,AZ
NPS,Grand Canyon National Park,LISOWSKI,1995,Campfire,0.1,A,36.08442,-112.12736,AZ
NPS,Grand Canyon National Park,RIVER8,1995,Campfire,0.1,A,36.77038,-111.65439,AZ
NPS,Grand Canyon National Park,RIVER11,1995,Campfire,0.1,A,36.73771,-111.69331,AZ
NPS,Grand Canyon National Park,PAPAGO,1995,Campfire,0.1,A,36.03634,-111.83253,AZ
NPS,Grand Canyon National Park,ASPEN51,1995,Campfire,0.1,A,36.0469,-112.11911,AZ
NPS,Grand Canyon National Park,PINE315,1995,Campfire,0.1,A,36.04738,-112.11662,AZ
NPS,Grand Canyon National Park,PINE266,1995,Campfire,0.1,A,36.04737,-112.11729,AZ
NPS,Grand Canyon National Park,BADGER,1995,Campfire,0.1,A,36.77216,-111.65777,AZ
NPS,Grand Canyon National Park,PINE287,1995,Campfire,0.1,A,36.04937,-112.11543,AZ
NPS,Grand Canyon National Park,TUCKUP,1995,Campfire,0.1,A,36.28794,-112.86518,AZ
NPS,Grand Canyon National Park,BIRDSEYE,1995,Lightning,0.1,A,36.14819,-112.16667,AZ
NPS,Grand Canyon National Park,RED CANYON,1995,Debris Burning,2.0,B,36.0482,-111.93333,AZ
NPS,Grand Canyon National Park,PHANTOM,1995,Campfire,0.1,A,36.10058,-112.09422,AZ
NPS,Grand Canyon National Park,TOWAGO,1995,Lightning,0.1,A,36.28152,-112.66667,AZ
NPS,Grand Canyon National Park,ASPEN34,1995,Campfire,0.1,A,36.04751,-112.12128,AZ
NPS,Grand Canyon National Park,MATHER,1995,Campfire,0.1,A,36.04769,-112.11718,AZ
NPS,Grand Canyon National Park,JACKASS,1995,Campfire,0.1,A,36.25788,-112.20773,AZ
NPS,Grand Canyon National Park,SYPHER,1995,Campfire,0.1,A,36.05151,-112.14232,AZ
NPS,Grand Canyon National Park,HEARST,1995,Campfire,0.1,A,35.98189,-111.99834,AZ
NPS,Grand Canyon National Park,MATHER133,1995,Campfire,0.1,A,36.04437,-112.12013,AZ
NPS,Grand Canyon National Park,COBBLER,1995,Campfire,0.1,A,36.04041,-112.11008,AZ
NPS,Grand Canyon National Park,BUGGELN,1995,Miscellaneous,0.1,A,35.98052,-111.94201,AZ
NPS,Grand Canyon National Park,SHOSHONE,1995,Campfire,0.1,A,36.04258,-112.05852,AZ
NPS,Grand Canyon National Park,DRAW,1995,Lightning,0.1,A,35.99155,-112.11389,AZ
NPS,Grand Canyon National Park,WINDYPINES,1995,Campfire,0.1,A,35.9972,-112.09306,AZ
NPS,Grand Canyon National Park,PARTY,1995,Campfire,0.1,A,36.01485,-112.01667,AZ
NPS,Grand Canyon National Park,CASTOR,1995,Lightning,0.1,A,36.12319,-112.31667,AZ
NPS,Grand Canyon National Park,MOLLIE'S,1995,Lightning,75.0,C,36.08986,-113.36667,AZ
NPS,Grand Canyon National Park,LAME,1995,Lightning,98.0,C,36.13153,-113.86666,AZ
NPS,Grand Canyon National Park,SANUP,1995,Lightning,193.0,D,36.11485,-113.86667,AZ
NPS,Grand Canyon National Park,BRIGHTY,1995,Lightning,0.3,B,36.28152,-112.05,AZ
NPS,Grand Canyon National Park,MYSTERY2,1995,Lightning,0.1,A,36.02625,-112.19222,AZ
NPS,Grand Canyon National Park,DRAGON,1995,Lightning,0.1,A,36.25818,-112.13139,AZ
NPS,Grand Canyon National Park,MAPLE200,1995,Campfire,0.1,A,36.04704,-112.11428,AZ
NPS,Grand Canyon National Park,ASPEN 12,1995,Campfire,0.1,A,36.04689,-112.1205,AZ
NPS,Grand Canyon National Park,FLAG,1995,Campfire,0.1,A,36.02808,-112.18323,AZ
NPS,Grand Canyon National Park,QUARRY,1995,Campfire,0.1,A,36.28152,-112.08334,AZ
NPS,Grand Canyon National Park,RAIN,1995,Lightning,0.1,A,36.01486,-112.13889,AZ
NPS,Grand Canyon National Park,HARVEY,1995,Campfire,0.1,A,36.21152,-112.06334,AZ
NPS,Grand Canyon National Park,GERMAN,1995,Campfire,0.1,A,36.25652,-112.1,AZ
NPS,Grand Canyon National Park,VILLAGE,1995,Arson,0.2,A,36.04819,-112.1125,AZ
NPS,Grand Canyon National Park,CEDAR MTN.,1995,Lightning,1.0,B,36.04347,-111.78526,AZ
NPS,Grand Canyon National Park,MATTHES,1995,Lightning,1000.0,F,36.16485,-111.98333,AZ
NPS,Grand Canyon National Park,P-LINE,1995,Lightning,0.1,A,35.98986,-112.05695,AZ
NPS,Grand Canyon National Park,DUCK,1995,Lightning,0.1,A,36.00816,-112.06674,AZ
NPS,Grand Canyon National Park,GROUSE,1995,Lightning,0.1,A,35.99764,-112.08333,AZ
NPS,Grand Canyon National Park,BEDIVERE,1995,Lightning,1.5,B,36.23389,-112.23688,AZ
NPS,Grand Canyon National Park,OUTLET,1995,Lightning,1.0,B,36.2143,-112.12054,AZ
NPS,Grand Canyon National Park,MESA,1995,Lightning,0.1,A,36.6667,-111.9757,AZ
NPS,Grand Canyon National Park,HANDY,1995,Lightning,0.5,B,35.97708,-111.98556,AZ
NPS,Grand Canyon National Park,NEW WATER,1995,Lightning,574.0,E,36.01461,-113.96088,AZ
NPS,Grand Canyon National Park,JICARILLA,1995,Lightning,0.3,B,36.21485,-112.32111,AZ
NPS,Grand Canyon National Park,MATTHES,1995,Lightning,336.0,E,36.16485,-111.98333,AZ
NPS,Grand Canyon National Park,SINKING,1995,Miscellaneous,0.1,A,35.97872,-111.96636,AZ
NPS,Grand Canyon National Park,YAVAPAI,1995,Powerline,0.1,A,36.05249,-112.11885,AZ
NPS,Grand Canyon National Park,MONSOON,1995,Lightning,0.5,B,36.23513,-112.09222,AZ
NPS,Grand Canyon National Park,MIDDLE,1995,Lightning,0.1,A,36.00279,-112.06663,AZ
NPS,Grand Canyon National Park,SAFFRON,1995,Lightning,0.1,A,36.32874,-112.31139,AZ
NPS,Grand Canyon National Park,120,1995,Lightning,0.1,A,36.26845,-112.33011,AZ
NPS,Grand Canyon National Park,FIRE POINT,1995,Lightning,0.5,B,36.35846,-112.34889,AZ
NPS,Grand Canyon National Park,WALLA,1995,Lightning,0.1,A,36.23152,-112.21666,AZ
NPS,Grand Canyon National Park,HINDU,1995,Lightning,38.0,C,36.24511,-112.21536,AZ
NPS,Grand Canyon National Park,TOWER,1995,Lightning,0.1,A,36.0689,-112.15207,AZ
NPS,Grand Canyon National Park,HOPI,1995,Lightning,0.1,A,36.06886,-112.15212,AZ
NPS,Grand Canyon National Park,LITTLE,1995,Lightning,0.7,B,36.2779,-112.12611,AZ
NPS,Grand Canyon National Park,ENTRANCE,1995,Lightning,0.1,A,36.0332,-111.83055,AZ
NPS,Grand Canyon National Park,STRAIGHT,1995,Lightning,0.1,A,36.05709,-111.77351,AZ
NPS,Grand Canyon National Park,RIM,1995,Lightning,0.1,A,36.05505,-112.18134,AZ
NPS,Grand Canyon National Park,GROUPSITE,1995,Lightning,0.1,A,36.02244,-111.97208,AZ
NPS,Grand Canyon National Park,YAVAPAI PT,1995,Smoking,0.1,A,36.07158,-112.11202,AZ
NPS,Grand Canyon National Park,ROBBER,1995,Lightning,5.2,B,36.26735,-112.11833,AZ
NPS,Grand Canyon National Park,O-SPRING,1995,Lightning,4.5,B,36.22097,-112.11639,AZ
NPS,Grand Canyon National Park,WESTERN,1995,Arson,0.1,A,36.05577,-112.11563,AZ
NPS,Grand Canyon National Park,RANGE RD.,1995,Campfire,0.1,A,36.04263,-112.08334,AZ
NPS,Grand Canyon National Park,YAKI,1995,Campfire,0.1,A,36.04819,-112.07778,AZ
NPS,Grand Canyon National Park,VANDERGRAF,1996,Campfire,0.1,A,36.09819,-112.085,AZ
NPS,Grand Canyon National Park,PHANTOM,1996,Campfire,0.1,A,36.11485,-112.01666,AZ
NPS,Grand Canyon National Park,FURBUSH,1996,Campfire,0.1,A,36.20041,-111.90055,AZ
NPS,Grand Canyon National Park,LUONGO,1996,Smoking,0.1,A,36.0493,-112.13555,AZ
NPS,Grand Canyon National Park,TRANSIENT,1996,Campfire,0.1,A,36.04912,-112.13735,AZ
NPS,Grand Canyon National Park,ESCALANTE,1996,Campfire,0.1,A,36.03319,-111.835,AZ
NPS,Grand Canyon National Park,2MILECORNE,1996,Campfire,0.1,A,36.0657,-112.11861,AZ
NPS,Grand Canyon National Park,HAND,1996,Campfire,0.1,A,36.09819,-112.085,AZ
NPS,Grand Canyon National Park,DOMINY,1996,Equipment Use,0.1,A,36.0332,-111.81833,AZ
NPS,Grand Canyon National Park,1.5MILE,1996,Campfire,0.1,A,36.0657,-112.11861,AZ
NPS,Grand Canyon National Park,BOUCHER,1996,Campfire,0.1,A,36.08208,-112.21694,AZ
NPS,Grand Canyon National Park,MCCASLIN,1996,Campfire,0.1,A,36.04931,-112.10195,AZ
NPS,Grand Canyon National Park,SUDDATH,1996,Campfire,0.1,A,36.04931,-112.10195,AZ
NPS,Grand Canyon National Park,FIR #104,1996,Campfire,0.1,A,36.04931,-112.10195,AZ
NPS,Grand Canyon National Park,YAKI,1996,Campfire,0.1,A,36.04931,-112.06805,AZ
NPS,Grand Canyon National Park,CUMMINS,1996,Campfire,0.1,A,36.23319,-113.03584,AZ
NPS,Grand Canyon National Park,PIPECREEK,1996,Campfire,0.1,A,36.23319,-112.08501,AZ
NPS,Grand Canyon National Park,NATOUT#1,1996,Smoking,0.1,A,36.04988,-112.10514,AZ
NPS,Grand Canyon National Park,HANCE,1996,Debris Burning,51.7,C,36.00042,-111.96694,AZ
NPS,Grand Canyon National Park,S ENTRANCE,1996,Miscellaneous,0.1,A,35.99428,-112.11993,AZ
NPS,Grand Canyon National Park,DV #46,1996,Campfire,0.1,A,36.0332,-111.81833,AZ
NPS,Grand Canyon National Park,ROWE WELL,1996,Campfire,0.1,A,36.02258,-112.18221,AZ
NPS,Grand Canyon National Park,LANKFORD,1996,Campfire,0.1,A,36.09819,-112.085,AZ
NPS,Grand Canyon National Park,ASPEN 59,1996,Miscellaneous,0.1,A,36.04746,-112.11755,AZ
NPS,Grand Canyon National Park,MONSMA,1996,Campfire,0.1,A,36.0332,-111.81833,AZ
NPS,Grand Canyon National Park,FIR #82,1996,Campfire,0.1,A,36.04931,-112.10195,AZ
NPS,Grand Canyon National Park,JARRATT,1996,Campfire,0.1,A,36.04931,-112.10195,AZ
NPS,Grand Canyon National Park,TRANSCEPT,1996,Lightning,0.1,A,36.20596,-112.06076,AZ
NPS,Grand Canyon National Park,BRIDGER,1996,Lightning,30.0,C,36.5833,-112.4452,AZ
NPS,Grand Canyon National Park,PIMA,1996,Lightning,0.1,A,36.0595,-112.19107,AZ
NPS,Grand Canyon National Park,SITE 32,1996,Campfire,0.1,A,36.2005,-112.05227,AZ
NPS,Grand Canyon National Park,FARIAS,1996,Campfire,0.1,A,36.20041,-112.05222,AZ
NPS,Grand Canyon National Park,NAT #2,1996,Lightning,0.1,A,36.37794,-112.46391,AZ
NPS,Grand Canyon National Park,BRAHMA,1996,Lightning,0.2,A,36.13218,-112.04,AZ
NPS,Grand Canyon National Park,SAGE 4,1996,Campfire,0.1,A,36.0438,-112.11973,AZ
NPS,Grand Canyon National Park,AB MISC,1996,Lightning,0.1,A,36.08608,-112.20112,AZ
NPS,Grand Canyon National Park,MERLIN,1996,Lightning,0.2,A,36.31652,-112.30056,AZ
NPS,Grand Canyon National Park,DV #23,1996,Campfire,0.1,A,36.0332,-111.81833,AZ
NPS,Grand Canyon National Park,LANCELOT,1996,Lightning,0.2,A,36.31597,-112.26917,AZ
NPS,Grand Canyon National Park,SAGITARIUS,1996,Lightning,26.0,C,36.21485,-112.29723,AZ
NPS,Grand Canyon National Park,FAWN SPRIN,1996,Lightning,0.2,A,36.33661,-112.15523,AZ
NPS,Grand Canyon National Park,CEDAR MTN,1996,Lightning,0.5,B,36.059428,-111.770797,AZ
NPS,Grand Canyon National Park,ELAINE CST,1996,Lightning,0.2,A,36.3239,-112.28802,AZ
NPS,Grand Canyon National Park,DRAGONHEAD,1996,Lightning,0.3,B,36.24877,-112.2182,AZ
NPS,Grand Canyon National Park,THUNDER,1996,Lightning,0.1,A,36.33358,-112.15871,AZ
NPS,Grand Canyon National Park,SOUTH FORK,1996,Lightning,0.1,A,36.33985,-112.175,AZ
NPS,Grand Canyon National Park,PERL,1996,Campfire,0.1,A,36.0493,-112.13555,AZ
NPS,Grand Canyon National Park,EMMA,1996,Lightning,0.2,A,36.29346,-113.15834,AZ
NPS,Grand Canyon National Park,MESA,1996,Lightning,128.0,D,36.33152,-112.5,AZ
NPS,Grand Canyon National Park,JUNIPER,1996,Lightning,0.1,A,36.21669,-112.17143,AZ
NPS,Grand Canyon National Park,BRT ANGEL,1996,Lightning,0.1,A,36.23321,-112.04897,AZ
NPS,Grand Canyon National Park,CHIPS,1996,Equipment Use,0.1,A,36.01928,-112.18201,AZ
NPS,Grand Canyon National Park,BIG SPRING,1996,Lightning,2.0,B,36.31735,-112.21805,AZ
NPS,Grand Canyon National Park,ASPEN #17,1996,Campfire,0.1,A,36.04931,-112.10195,AZ
NPS,Grand Canyon National Park,LONG,1996,Lightning,0.2,A,35.98403,-112.085,AZ
NPS,Grand Canyon National Park,RAINBOW,1996,Lightning,1.0,B,36.31485,-112.31917,AZ
NPS,Grand Canyon National Park,NATURAL #5,1996,Lightning,0.1,A,36.03314,-112.17873,AZ
NPS,Grand Canyon National Park,PIMA CRASH,1996,Equipment Use,0.1,A,36.04819,-112.2,AZ
NPS,Grand Canyon National Park,THOMPSON,1996,Lightning,0.1,A,36.25709,-112.09013,AZ
NPS,Grand Canyon National Park,COFFEE LAK,1996,Lightning,0.1,A,36.30531,-112.14821,AZ
NPS,Grand Canyon National Park,SO SPRINGS,1996,Lightning,0.1,A,36.31362,-112.26121,AZ
NPS,Grand Canyon National Park,LANCELOT 2,1996,Lightning,200.0,D,36.31457,-112.26638,AZ
NPS,Grand Canyon National Park,RANGE RD,1996,Lightning,0.1,A,36.25817,-112.07675,AZ
NPS,Grand Canyon National Park,PONDEROSA,1996,Lightning,0.1,A,36.30811,-112.25897,AZ
NPS,Grand Canyon National Park,DV #36,1996,Campfire,0.1,A,36.0332,-111.81833,AZ
NPS,Grand Canyon National Park,IMPERIAL,1996,Lightning,0.5,B,36.27889,-112.01838,AZ
NPS,Grand Canyon National Park,GREEN,1996,Lightning,0.1,A,36.3352,-112.21213,AZ
NPS,Grand Canyon National Park,STEAMBOAT,1996,Lightning,0.1,A,36.36641,-112.40004,AZ
NPS,Grand Canyon National Park,PHANTOMCRK,1996,Campfire,0.1,A,36.09986,-112.085,AZ
NPS,Grand Canyon National Park,JOHNSON,1996,Campfire,0.1,A,36.09986,-112.085,AZ
NPS,Grand Canyon National Park,CAMPER,1996,Campfire,0.1,A,36.03319,-112.1525,AZ
NPS,Grand Canyon National Park,WHEELER,1996,Lightning,4.0,B,36.27291,-112.40611,AZ
NPS,Grand Canyon National Park,ASPEN 7,1996,Debris Burning,0.1,A,36.04792,-112.11663,AZ
NPS,Grand Canyon National Park,SPRING,1996,Lightning,0.5,B,36.34373,-112.31245,AZ
NPS,Grand Canyon National Park,BOUNDARY,1996,Campfire,0.1,A,36.04435,-112.12356,AZ
NPS,Grand Canyon National Park,DV FIRE,1996,Campfire,0.1,A,35.96577,-111.98192,AZ
NPS,Grand Canyon National Park,RIDGE,1996,Lightning,0.2,A,36.30029,-112.19705,AZ
NPS,Grand Canyon National Park,NATOUT#6,1996,Lightning,0.1,A,35.99819,-112.06667,AZ
NPS,Grand Canyon National Park,TOWER,1996,Lightning,0.2,A,36.30935,-112.24459,AZ
NPS,Grand Canyon National Park,MASWIK6709,1996,Campfire,0.1,A,36.08208,-112.21694,AZ
NPS,Grand Canyon National Park,GRANDVIEW,1996,Lightning,0.1,A,35.96566,-111.9596,AZ
NPS,Grand Canyon National Park,WIDFORSS,1996,Lightning,0.2,A,36.22674,-112.07095,AZ
NPS,Grand Canyon National Park,OUTLET,1996,Lightning,0.1,A,36.22228,-112.11079,AZ
NPS,Grand Canyon National Park,NATOUT7,1996,Lightning,0.1,A,35.96561,-111.95965,AZ
NPS,Grand Canyon National Park,CAMPER 2,1996,Campfire,0.1,A,36.18099,-112.37561,AZ
NPS,Grand Canyon National Park,PASTUREWAS,1996,Campfire,0.1,A,36.11486,-112.28556,AZ
NPS,Grand Canyon National Park,NAT OUT8,1996,Lightning,0.1,A,36.21913,-112.05248,AZ
NPS,Grand Canyon National Park,UNCLE JIM,1996,Lightning,0.2,A,36.21607,-112.03679,AZ
NPS,Grand Canyon National Park,UNCLE JIM2,1996,Lightning,0.1,A,36.21669,-112.0364,AZ
NPS,Grand Canyon National Park,MANZANITA,1996,Lightning,0.1,A,36.19301,-112.01903,AZ
NPS,Grand Canyon National Park,DUTTON,1996,Lightning,2.0,B,36.29818,-112.37472,AZ
NPS,Grand Canyon National Park,ALBRIGHT,1996,Lightning,0.1,A,36.05764,-112.11861,AZ
NPS,Grand Canyon National Park,CHUCK,1996,Campfire,0.1,A,36.0168,-112.1525,AZ
NPS,Grand Canyon National Park,MILLER,1996,Campfire,0.1,A,36.0332,-112.10195,AZ
NPS,Grand Canyon National Park,CASTLE,1996,Lightning,0.1,A,36.33346,-112.28581,AZ
NPS,Grand Canyon National Park,PLANE CRAS,1996,Equipment Use,0.1,A,36.04147,-112.11176,AZ
NPS,Grand Canyon National Park,BEDIVERE,1996,Lightning,1.0,B,36.24958,-112.23501,AZ
NPS,Grand Canyon National Park,OKTOBER,1996,Lightning,12.0,C,36.31485,-112.26639,AZ
NPS,Grand Canyon National Park,BASS,1996,Lightning,11.0,C,36.36457,-112.35,AZ
NPS,Grand Canyon National Park,YAVAPAI,1996,Smoking,0.1,A,36.04931,-112.10195,AZ
NPS,Grand Canyon National Park,TURKEY DRA,1996,Miscellaneous,0.5,B,36.26207,-112.1,AZ
NPS,Grand Canyon National Park,TRAILERBUR,1996,Miscellaneous,0.1,A,36.0482,-112.13306,AZ
NPS,Grand Canyon National Park,TAPEATS,1997,Miscellaneous,0.1,A,36.39013,-112.45195,AZ
NPS,Grand Canyon National Park,DUMP,1997,Children,0.1,A,36.047206,-112.142117,AZ
NPS,Grand Canyon National Park,JUGG,1997,Lightning,0.3,B,36.421094,-112.396853,AZ
NPS,Grand Canyon National Park,PIUTE,1997,Lightning,0.1,A,36.11069,-112.33194,AZ
NPS,Grand Canyon National Park,BEDROCK,1997,Lightning,0.1,A,36.32401,-112.435,AZ
NPS,Grand Canyon National Park,SHINUMO,1997,Lightning,0.1,A,36.33152,-112.28055,AZ
NPS,Grand Canyon National Park,MUAV,1997,Lightning,0.1,A,36.30041,-112.36861,AZ
NPS,Grand Canyon National Park,SHIP,1997,Lightning,0.2,A,35.9793,-111.96167,AZ
NPS,Grand Canyon National Park,YAQUI,1997,Campfire,0.1,A,36.056517,-112.077994,AZ
NPS,Grand Canyon National Park,COCONINO,1997,Miscellaneous,0.2,A,36.05041,-112.14861,AZ
NPS,Grand Canyon National Park,VILLAGE,1997,Campfire,0.1,A,36.0511,-112.1014,AZ
NPS,Grand Canyon National Park,CENTER,1997,Campfire,0.1,A,36.0511,-112.1014,AZ
NPS,Grand Canyon National Park,ROWESWELL,1997,Lightning,0.1,A,36.04186,-112.1567,AZ
NPS,Grand Canyon National Park,BLACKTAIL,1997,Lightning,0.5,B,36.30374,-112.40445,AZ
NPS,Grand Canyon National Park,OUTLET,1997,Lightning,1.5,B,36.18652,-112.10834,AZ
NPS,Grand Canyon National Park,YAVAPAI,1997,Campfire,0.1,A,36.06208,-112.11695,AZ
NPS,Grand Canyon National Park,TUSAYAN,1997,Equipment Use,0.1,A,35.9903,-112.1263,AZ
NPS,Grand Canyon National Park,FA #7,1997,Miscellaneous,0.1,A,36.04847,-112.11417,AZ
NPS,Grand Canyon National Park,PICNIC,1997,Campfire,0.1,A,36.0306,-112.0239,AZ
NPS,Grand Canyon National Park,BETWEEN,1997,Smoking,0.1,A,36.0618,-112.11167,AZ
NPS,Grand Canyon National Park,CAMP,1997,Campfire,0.1,A,36.04764,-112.08695,AZ
NPS,Grand Canyon National Park,ESCAPE,1997,Lightning,0.1,A,36.0432,-112.05778,AZ
NPS,Grand Canyon National Park,WEDDING,1997,Campfire,0.1,A,36.21152,-112.06334,AZ
NPS,Grand Canyon National Park,EDR,1997,Campfire,0.1,A,36.2022,-112.0356,AZ
NPS,Grand Canyon National Park,GRAND,1997,Lightning,0.1,A,35.98855,-111.99094,AZ
NPS,Grand Canyon National Park,YAQUIPICNI,1997,Lightning,0.1,A,36.03486,-112.08056,AZ
NPS,Grand Canyon National Park,EMMA,1997,Lightning,0.1,A,36.25957,-113.14028,AZ
NPS,Grand Canyon National Park,PEAK,1997,Lightning,0.7,B,36.26902,-113.17723,AZ
NPS,Grand Canyon National Park,PIPELINE,1997,Lightning,0.5,B,35.9893,-111.92416,AZ
NPS,Grand Canyon National Park,LIGHTBULB,1997,Lightning,66.0,C,36.22041,-112.11944,AZ
NPS,Grand Canyon National Park,LONG JIM,1997,Lightning,0.5,B,36.01152,-112.075,AZ
NPS,Grand Canyon National Park,HEARST,1997,Lightning,1.5,B,35.9843,-111.99834,AZ
NPS,Grand Canyon National Park,RAPID,1997,Equipment Use,0.1,A,36.044544,-111.920217,AZ
NPS,Grand Canyon National Park,ABYSS,1997,Lightning,90.0,C,36.29834,-112.36194,AZ
NPS,Grand Canyon National Park,CRYSTAL,1997,Lightning,0.3,B,36.28291,-112.16861,AZ
NPS,Grand Canyon National Park,TIPOVER,1997,Lightning,0.1,A,36.3318,-112.24139,AZ
NPS,Grand Canyon National Park,HORSETHIEF,1997,Lightning,0.1,A,36.03792,-112.2275,AZ
NPS,Grand Canyon National Park,BICYCLE,1997,Arson,0.1,A,36.04653,-112.12528,AZ
NPS,Grand Canyon National Park,LAVA,1997,Lightning,0.1,A,36.26402,-113.12806,AZ
NPS,Grand Canyon National Park,BASEBALL,1997,Campfire,0.1,A,36.2017,-112.0583,AZ
NPS,Grand Canyon National Park,SWAMP,1997,Lightning,251.0,D,36.31735,-112.31916,AZ
NPS,Grand Canyon National Park,HAUNTED,1997,Lightning,0.1,A,36.19402,-112.09917,AZ
NPS,Grand Canyon National Park,KOMO,1997,Lightning,0.2,A,36.17041,-112.01945,AZ
NPS,Grand Canyon National Park,FORS,1997,Campfire,0.1,A,36.04819,-112.15,AZ
NPS,Grand Canyon National Park,MATHER42,1998,Campfire,0.1,A,36.04735,-112.11805,AZ
NPS,Grand Canyon National Park,THORSOBC,1998,Campfire,0.1,A,36.00375,-112.03889,AZ
NPS,Grand Canyon National Park,HERMITCK,1998,Campfire,0.1,A,36.08069,-112.21222,AZ
NPS,Grand Canyon National Park,TOPEKA,1998,Missing/Undefined,2532.0,F,36.043314,-112.040719,AZ
NPS,Grand Canyon National Park,BALLFIELD,1998,Campfire,0.1,A,36.2006,-112.0517,AZ
NPS,Grand Canyon National Park,POWERLINE,1998,Miscellaneous,0.2,A,36.0805,-112.3088,AZ
NPS,Grand Canyon National Park,FIREPOINT OBC,1998,Campfire,0.1,A,36.36,-112.35,AZ
NPS,Grand Canyon National Park,STONE FIRE,1998,Miscellaneous,3.0,B,36.3668,-112.44111,AZ
NPS,Grand Canyon National Park,NAT OUT 1,1998,Lightning,0.1,A,36.34366,-112.14453,AZ
NPS,Grand Canyon National Park,ANGEL,1998,Smoking,0.1,A,36.05541,-112.14111,AZ
NPS,Grand Canyon National Park,LOOKOUT,1998,Smoking,0.1,A,36.05541,-112.14111,AZ
NPS,Grand Canyon National Park,KANABOWNIT,1998,Lightning,3.6,B,36.28235,-112.21084,AZ
NPS,Grand Canyon National Park,CRYSTAL,1998,Lightning,4.0,B,36.28152,-112.2,AZ
NPS,Grand Canyon National Park,TAPEATS,1998,Lightning,0.1,A,36.3868,-112.43389,AZ
NPS,Grand Canyon National Park,HORSESHOE,1998,Lightning,0.1,A,36.03152,-111.97138,AZ
NPS,Grand Canyon National Park,SAGITARIUS,1998,Lightning,0.5,B,36.22708,-112.29111,AZ
NPS,Grand Canyon National Park,THUMB1,1998,Lightning,0.5,B,36.32874,-112.51195,AZ
NPS,Grand Canyon National Park,THUMB2,1998,Lightning,0.1,A,36.33735,-112.48778,AZ
NPS,Grand Canyon National Park,THUMB3,1998,Lightning,0.1,A,36.33902,-112.48556,AZ
NPS,Grand Canyon National Park,FULLER,1998,Lightning,0.1,A,36.2542,-112.0494,AZ
NPS,Grand Canyon National Park,GREENLAND,1998,Lightning,0.5,B,36.23486,-112.01667,AZ
NPS,Grand Canyon National Park,MANZANITA,1998,Lightning,0.2,A,36.23041,-111.99723,AZ
NPS,Grand Canyon National Park,LINDBERGH,1998,Lightning,0.4,B,36.28151,-112.06667,AZ
NPS,Grand Canyon National Park,FIELD,1998,Lightning,0.2,A,36.21152,-112.06334,AZ
NPS,Grand Canyon National Park,EAST,1998,Lightning,0.1,A,35.9983,-112.04,AZ
NPS,Grand Canyon National Park,PICNIC,1998,Lightning,0.1,A,36.26596,-112.02333,AZ
NPS,Grand Canyon National Park,ATOKO,1998,Lightning,0.5,B,36.2093,-111.95361,AZ
NPS,Grand Canyon National Park,EMMA,1998,Lightning,76.0,C,36.28485,-113.155,AZ
NPS,Grand Canyon National Park,COTTONWOOD,1998,Campfire,0.2,A,36.09819,-112.09333,AZ
NPS,Grand Canyon National Park,NORTHWEST,1998,Lightning,0.2,A,36.35818,-112.26166,AZ
NPS,Grand Canyon National Park,NR COMPLEX,1998,Lightning,4957.0,F,36.21367,-112.09139,AZ
NPS,Grand Canyon National Park,CASTLE,1998,Lightning,10.0,C,36.33235,-112.31694,AZ
NPS,Grand Canyon National Park,BUCKHORN,1998,Lightning,0.1,A,36.41402,-112.74472,AZ
NPS,Grand Canyon National Park,TIPOVER,1998,Lightning,17.0,C,36.352208,-112.220733,AZ
NPS,Grand Canyon National Park,RAMADA,1998,Campfire,0.1,A,36.03819,-112.175,AZ
NPS,Grand Canyon National Park,NATCHI,1998,Lightning,62.0,C,36.16568,-111.89555,AZ
NPS,Grand Canyon National Park,LANCELOT,1998,Lightning,0.1,A,36.31485,-112.24333,AZ
NPS,Grand Canyon National Park,ROBBERS R,1998,Lightning,0.2,A,36.28485,-112.08167,AZ
NPS,Grand Canyon National Park,KP,1998,Lightning,0.1,A,36.21736,-112.05306,AZ
NPS,Grand Canyon National Park,NOVINGER,1998,Lightning,0.1,A,36.21458,-111.97389,AZ
NPS,Grand Canyon National Park,PITS,1998,Lightning,0.1,A,36.28485,-112.09834,AZ
NPS,Grand Canyon National Park,FRANCOIS,1998,Lightning,0.1,A,36.15652,-111.98333,AZ
NPS,Grand Canyon National Park,MULE,1998,Lightning,0.1,A,36.21152,-112.04667,AZ
NPS,Grand Canyon National Park,MODRED,1998,Lightning,67.0,C,36.31485,-112.24333,AZ
NPS,Grand Canyon National Park,ELK,1998,Miscellaneous,0.1,A,36.05486,-112.11166,AZ
NPS,Grand Canyon National Park,COCONINO,1998,Children,0.1,A,36.05486,-112.14667,AZ
NPS,Grand Canyon National Park,SLUDGE,1998,Campfire,0.1,A,36.0283,-112.1833,AZ
NPS,Grand Canyon National Park,QUARRY,1999,Campfire,0.1,A,36.0356,-112.1619,AZ
NPS,Grand Canyon National Park,BUGGELN,1999,Arson,8.0,B,35.9808,-111.95452,AZ
NPS,Grand Canyon National Park,YAKI,1999,Campfire,0.1,A,36.0543,-112.10473,AZ
NPS,Grand Canyon National Park,MARIA,1999,Lightning,0.1,A,36.04258,-112.21892,AZ
NPS,Grand Canyon National Park,SHINUMO,1999,Lightning,5.4,B,36.32929,-112.28306,AZ
NPS,Grand Canyon National Park,TRITLE,1999,Lightning,0.1,A,36.20152,-111.94944,AZ
NPS,Grand Canyon National Park,TROY,1999,Lightning,4.5,B,36.32985,-112.225,AZ
NPS,Grand Canyon National Park,GRAMA,1999,Lightning,1.0,B,36.21485,-112.195,AZ
NPS,Grand Canyon National Park,OBC#1,1999,Campfire,0.1,A,36.03931,-112.16417,AZ
NPS,Grand Canyon National Park,OBC #2,1999,Campfire,0.1,A,36.2083,-112.0594,AZ
NPS,Grand Canyon National Park,WALLA,1999,Lightning,0.5,B,36.22624,-112.24611,AZ
NPS,Grand Canyon National Park,SAFFRON,1999,Lightning,1.0,B,36.33068,-112.32111,AZ
NPS,Grand Canyon National Park,SOLITUDE,1999,Lightning,0.1,A,36.0343,-111.81112,AZ
NPS,Grand Canyon National Park,OBC#7,1999,Campfire,0.1,A,36.0506,-112.0978,AZ
NPS,Grand Canyon National Park,BRIGHT,1999,Lightning,0.1,A,36.19235,-112.04667,AZ
NPS,Grand Canyon National Park,RIDGE,1999,Lightning,0.1,A,36.335542,-112.266567,AZ
NPS,Grand Canyon National Park,MARBLE,1999,Lightning,0.5,B,36.24328,-112.08253,AZ
NPS,Grand Canyon National Park,REDTAIL,1999,Lightning,81.0,C,36.21875,-112.11583,AZ
NPS,Grand Canyon National Park,BOUNDARY,1999,Lightning,358.0,E,36.35152,-112.34694,AZ
NPS,Grand Canyon National Park,OBC 22,1999,Campfire,0.1,A,36.2167,-112.0667,AZ
NPS,Grand Canyon National Park,CAMELOT,1999,Lightning,1264.0,F,36.30693,-112.25101,AZ
NPS,Grand Canyon National Park,ESCALANTE,1999,Lightning,0.1,A,36.04999,-111.86739,AZ
NPS,Grand Canyon National Park,OBC#23,1999,Campfire,0.1,A,36.02808,-112.18323,AZ
NPS,Navajo National Monument,MONUMENT,1994,Lightning,3.0,B,36.76053,-110.49647,AZ
NPS,Organ Pipe Cactus National Monument,MM74,1992,Smoking,0.2,A,31.96994,-112.80496,AZ
NPS,Organ Pipe Cactus National Monument,OVERT,1998,Arson,19.6,C,31.87194,-112.78834,AZ
NPS,Organ Pipe Cactus National Monument,MILE 60.5,1998,Miscellaneous,0.3,B,32.16248,-112.76924,AZ
NPS,Organ Pipe Cactus National Monument,MARTIN,1999,Debris Burning,0.2,A,31.8631,-112.7594,AZ
NPS,Organ Pipe Cactus National Monument,ARMENTA,1999,Miscellaneous,0.2,A,32.19856,-112.86464,AZ
NPS,Organ Pipe Cactus National Monument,MILE 67.7,1999,Arson,0.2,A,32.05694,-112.79139,AZ
NPS,Petrified Forest National Park,NONAME,1993,Equipment Use,0.1,A,35.16666,-109.66667,AZ
NPS,Petrified Forest National Park,SANTA FE,1993,Railroad,3.0,B,35.0667,-109.75,AZ
NPS,Petrified Forest National Park,NINEMILE,1995,Miscellaneous,2.0,B,34.99999,-109.75,AZ
NPS,Saguaro National Park,SYCAMORE,1992,Lightning,3.5,B,32.18674,-110.52876,AZ
NPS,Saguaro National Park,RINCON WST,1992,Lightning,0.1,A,32.11257,-110.57631,AZ
NPS,Saguaro National Park,LUCKY,1992,Lightning,11.0,C,32.21642,-110.57615,AZ
NPS,Saguaro National Park,BEE,1992,Lightning,0.1,A,32.21736,-110.56285,AZ
NPS,Saguaro National Park,BILL,1992,Lightning,1.0,B,32.18253,-110.69203,AZ
NPS,Saguaro National Park,SUBURBAN,1993,Equipment Use,0.1,A,32.29642,-111.21682,AZ
NPS,Saguaro National Park,SPUD ROCK,1993,Campfire,244.0,D,32.20432,-110.53031,AZ
NPS,Saguaro National Park,MICA,1993,Lightning,0.5,B,32.22899,-110.54029,AZ
NPS,Saguaro National Park,BOUNDARY,1993,Miscellaneous,5.0,B,32.23426,-110.6729,AZ
NPS,Saguaro National Park,PISTOL,1993,Lightning,459.0,E,32.11701,-110.58245,AZ
NPS,Saguaro National Park,BROADWAY,1994,Miscellaneous,0.2,A,32.22014,-110.72111,AZ
NPS,Saguaro National Park,5TH STREET,1994,Miscellaneous,0.2,A,32.22736,-110.71998,AZ
NPS,Saguaro National Park,MOTHERS DY,1994,Equipment Use,1200.0,F,32.18167,-110.69748,AZ
NPS,Saguaro National Park,SPEEDWAY,1994,Arson,0.2,A,32.23395,-110.72009,AZ
NPS,Saguaro National Park,EAST 5TH,1994,Arson,0.2,A,32.22734,-110.7159,AZ
NPS,Saguaro National Park,EZKIMINZIN,1994,Arson,0.2,A,32.28374,-111.17387,AZ
NPS,Saguaro National Park,APACHE,1994,Arson,0.3,B,32.28784,-111.19054,AZ
NPS,Saguaro National Park,SPEEDWAY 2,1994,Arson,0.1,A,32.23192,-110.71977,AZ
NPS,Saguaro National Park,WENTWORTH,1994,Arson,0.1,A,32.22556,-110.71975,AZ
NPS,Saguaro National Park,SIGNAL 1,1994,Arson,0.1,A,32.28981,-111.20863,AZ
NPS,Saguaro National Park,SIGNAL 2,1994,Arson,0.1,A,32.29003,-111.20927,AZ
NPS,Saguaro National Park,5TH ST 2,1994,Arson,1.0,B,32.22416,-110.71611,AZ
NPS,Saguaro National Park,GOLDEN GAT,1994,Arson,2.5,B,32.29756,-111.16085,AZ
NPS,Saguaro National Park,PEAK,1994,Lightning,0.1,A,32.131,-110.52188,AZ
NPS,Saguaro National Park,CONGO,1994,Lightning,0.1,A,32.18332,-110.54048,AZ
NPS,Saguaro National Park,4 CORNERS,1994,Lightning,0.1,A,32.20623,-110.55753,AZ
NPS,Saguaro National Park,WILDHORSE,1994,Lightning,1.0,B,32.20777,-110.67273,AZ
NPS,Saguaro National Park,SAGUARO PK,1995,Miscellaneous,30.0,C,32.34877,-111.1432,AZ
NPS,Saguaro National Park,POWER,1995,Campfire,0.2,A,32.25584,-111.21011,AZ
NPS,Saguaro National Park,CCC SPRING,1995,Lightning,0.2,A,32.11959,-110.58289,AZ
NPS,Saguaro National Park,RINCON,1995,Lightning,6.0,B,32.12031,-110.58009,AZ
NPS,Saguaro National Park,TANQUE VER,1995,Lightning,38.0,C,32.1617,-110.71386,AZ
NPS,Saguaro National Park,BOX,1995,Lightning,1.0,B,32.15935,-110.71139,AZ
NPS,Saguaro National Park,WASP,1995,Lightning,4.0,B,32.16574,-110.65934,AZ
NPS,Saguaro National Park,BATHTUB,1995,Lightning,0.2,A,32.19257,-110.54807,AZ
NPS,Saguaro National Park,WASP II,1995,Lightning,0.5,B,32.15873,-110.62066,AZ
NPS,Saguaro National Park,SANDARIO,1996,Children,0.1,A,32.31282,-111.21741,AZ
NPS,Saguaro National Park,L'TL SPUD,1996,Debris Burning,0.8,B,32.2135,-110.55759,AZ
NPS,Saguaro National Park,MICATANK,1997,Lightning,110.0,D,32.21952,-110.65479,AZ
NPS,Saguaro National Park,DEVIL,1997,Lightning,2.0,B,32.20093,-110.54287,AZ
NPS,Saguaro National Park,VERDE,1997,Lightning,8.0,B,32.1616,-110.65436,AZ
NPS,Saguaro National Park,MICA PNF,1997,Lightning,1.5,B,32.22086,-110.55973,AZ
NPS,Saguaro National Park,CAVE,1997,Debris Burning,50.0,C,32.19886,-110.56149,AZ
NPS,Saguaro National Park,PEAK,1998,Lightning,0.1,A,32.11398,-110.5243,AZ
NPS,Saguaro National Park,FREEMAN RD,1999,Smoking,0.1,A,32.18348,-110.73751,AZ
NPS,Saguaro National Park,BOX CANYON,1999,Lightning,6476.0,G,32.16982,-110.6784,AZ
NPS,Saguaro National Park,SPEEDWAY I,1999,Miscellaneous,0.1,A,32.23458,-110.69331,AZ
NPS,Saguaro National Park,BRIDAL,1999,Lightning,50.0,C,32.22152,-110.65014,AZ
NPS,Sunset Crater Volcano,HORNITO,1993,Campfire,0.1,A,35.362462,-111.515604,AZ
NPS,Sunset Crater Volcano,SLOPE,1993,Lightning,1.3,B,35.368467,-111.500711,AZ
NPS,Sunset Crater Volcano,OVER,1994,Lightning,0.1,A,35.3714,-111.4925,AZ
NPS,Sunset Crater Volcano,WESTON,1994,Lightning,0.1,A,35.384153,-111.518537,AZ
NPS,Sunset Crater Volcano,A 'A,1994,Lightning,2.0,B,35.36161,-111.529196,AZ
NPS,Sunset Crater Volcano,TORNADO,1995,Lightning,0.1,A,35.368468,-111.500721,AZ
NPS,Sunset Crater Volcano,COYOTE,1996,Lightning,0.1,A,35.376799,-111.500717,AZ
NPS,Sunset Crater Volcano,SUNSET,1998,Smoking,0.1,A,35.383345,-111.500709,AZ
NPS,Sunset Crater Volcano,SUNSET,1999,Lightning,0.1,A,35.363864,-111.500627,AZ
NPS,Tonto National Monument,NATIONAL,1995,Miscellaneous,0.3,B,33.65,-111.084,AZ
NPS,Walnut National Monument,YELLOW,1992,Lightning,0.1,A,35.1518,-111.500718,AZ
NPS,Walnut National Monument,PICNIC,1993,Smoking,0.1,A,35.201799,-111.500717,AZ
NPS,Walnut National Monument,CABIN WF,1995,Debris Burning,1.0,B,35.173789,-111.521084,AZ
NPS,Walnut National Monument,FIELDHOUSE,1995,Lightning,0.1,A,35.173621,-111.519861,AZ
NPS,Walnut National Monument,SITE,1996,Lightning,0.1,A,35.168431,-111.508386,AZ
NPS,Walnut National Monument,CANYON,1998,Smoking,0.1,A,35.188267,-111.502381,AZ
NPS,Walnut National Monument,REBURN,1998,Lightning,0.1,A,35.173749,-111.51749,AZ
NPS,Walnut National Monument,CABIN,1998,Lightning,0.1,A,35.173371,-111.512963,AZ
NPS,Walnut National Monument,POINT,1999,Campfire,0.1,A,35.166663,-111.499997,AZ
NPS,Walnut National Monument,PICTO ESCA,1999,Debris Burning,5.5,B,35.162893,-111.517377,AZ
NPS,Wupatki National Monument,CEDAR,1994,Lightning,0.1,A,35.549992,-111.466674,AZ
NPS,Wupatki National Monument,ARROWHEAD,1994,Lightning,0.1,A,35.500004,-111.45,AZ
NPS,Wupatki National Monument,DEADMAN,1994,Lightning,0.1,A,35.541666,-111.400005,AZ
NPS,Wupatki National Monument,WEST,1995,Lightning,923.0,E,35.558962,-111.504992,AZ
NPS,Wupatki National Monument,PICNIC,1995,Lightning,0.1,A,35.544531,-111.389593,AZ
NPS,Wupatki National Monument,CRACK,1995,Lightning,0.1,A,35.533326,-111.374449,AZ
NPS,Wupatki National Monument,SHOE,1996,Lightning,0.1,A,35.544991,-111.40322,AZ
NPS,Wupatki National Monument,LOMAKI,1996,Lightning,15.0,C,35.574177,-111.456594,AZ
NPS,Wupatki National Monument,CITADEL,1996,Lightning,35.0,C,35.574097,-111.46102,AZ
NPS,Wupatki National Monument,ARROWHEAD,1996,Lightning,150.0,D,35.542122,-111.499966,AZ
NPS,Wupatki National Monument,ROCKPILE,1996,Lightning,0.1,A,35.55392,-111.532677,AZ
NPS,Wupatki National Monument,UFO,1997,Lightning,0.1,A,35.53269,-111.352209,AZ
NPS,Wupatki National Monument,TANK,1999,Lightning,0.1,A,35.545066,-111.474335,AZ
NPS,Wupatki National Monument,HEISER,1999,Lightning,0.1,A,35.491684,-111.351566,AZ
NPS,Wupatki National Monument,COYOTE,1999,Lightning,0.1,A,35.545054,-111.456429,AZ
NPS,Black Canyon Of the Gunnison National Park,WARNERCAMP,1996,Debris Burning,3.0,B,38.57006,-107.73622,CO
NPS,Black Canyon Of the Gunnison National Park,QUICKOUT,1997,Lightning,0.1,A,38.59661,-107.71609,CO
NPS,Black Canyon Of the Gunnison National Park,BOSTWICKPK,1997,Lightning,0.1,A,38.57328,-107.79243,CO
NPS,Bents Old Fort National Historic Site,CATTAILS,1995,Lightning,70.0,C,38.04149,-103.42746,CO
NPS,Curecanti National Recreation Area,BEAVER CRK,1992,Campfire,0.1,A,38.50258,-106.96691,CO
NPS,Curecanti National Recreation Area,EAST ELK,1992,Campfire,5.0,B,38.51861,-107.14918,CO
NPS,Curecanti National Recreation Area,DRY GULCH,1992,Campfire,0.1,A,38.47821,-107.1916,CO
NPS,Curecanti National Recreation Area,COOPERS RN,1993,Fireworks,0.1,A,38.50833,-107.01667,CO
NPS,Curecanti National Recreation Area,BIRD FIRE,1997,Equipment Use,0.1,A,38.46865,-107.05918,CO
NPS,Curecanti National Recreation Area,JUNCTION,1997,Equipment Use,0.1,A,38.44062,-107.33317,CO
NPS,Curecanti National Recreation Area,WEST ELK,1997,Equipment Use,0.1,A,38.50688,-107.27202,CO
NPS,Curecanti National Recreation Area,L VORTAC,1997,Lightning,2.0,B,38.48395,-107.0518,CO
NPS,Curecanti National Recreation Area,STEVENS,1998,Campfire,1.0,B,38.48333,-107.08333,CO
NPS,Curecanti National Recreation Area,CEBOLLA,1998,Campfire,0.5,B,38.44993,-107.20129,CO
NPS,Curecanti National Recreation Area,IOLA,1998,Campfire,0.1,A,38.46668,-107.10001,CO
NPS,Curecanti National Recreation Area,OILSONLNDG,1999,Campfire,0.1,A,38.48333,-107.03334,CO
NPS,Curecanti National Recreation Area,PIPHER,1999,Debris Burning,5.0,B,38.51666,-107.62917,CO
NPS,Colorado National Monument,CRAB,1992,Lightning,0.1,A,39.03457,-108.73082,CO
NPS,Colorado National Monument,STARFISH,1993,Lightning,0.1,A,39.10067,-108.74044,CO
NPS,Colorado National Monument,MOWERFIRE,1993,Debris Burning,1.5,B,39.0864,-108.68464,CO
NPS,Colorado National Monument,REDFISH,1994,Arson,0.1,A,39.09277,-108.7052,CO
NPS,Colorado National Monument,ROWFISH,1994,Smoking,1.0,B,39.0363,-108.63047,CO
NPS,Colorado National Monument,DOGFISH,1994,Smoking,0.1,A,39.1147,-108.72445,CO
NPS,Colorado National Monument,WESTGATE,1994,Debris Burning,0.1,A,39.12063,-108.7302,CO
NPS,Colorado National Monument,BERRYBLAZE,1994,Smoking,0.1,A,39.0805,-108.72513,CO
NPS,Colorado National Monument,STONEHOUSE,1994,Debris Burning,1.5,B,39.10201,-108.73396,CO
NPS,Colorado National Monument,CATCH 22,1995,Lightning,0.1,A,39.07743,-108.71073,CO
NPS,Colorado National Monument,BRANCH,1995,Lightning,0.1,A,39.07069,-108.68605,CO
NPS,Colorado National Monument,DELMAR,1995,Children,0.1,A,39.10254,-108.73834,CO
NPS,Colorado National Monument,TINY,1995,Miscellaneous,0.1,A,39.09343,-108.73238,CO
NPS,Colorado National Monument,CHILL,1995,Miscellaneous,0.1,A,39.10268,-108.73628,CO
NPS,Colorado National Monument,DUCK,1995,Miscellaneous,0.1,A,39.10565,-108.73873,CO
NPS,Colorado National Monument,JOES FIRE,1996,Lightning,0.1,A,39.09102,-108.69777,CO
NPS,Colorado National Monument,KODEL,1997,Campfire,0.3,B,39.12205,-108.74485,CO
NPS,Colorado National Monument,RIPPLE,1997,Lightning,0.1,A,39.06394,-108.73201,CO
NPS,Colorado National Monument,TRIPLE L,1997,Lightning,0.1,A,39.05452,-108.66673,CO
NPS,Colorado National Monument,JUNKER,1997,Lightning,0.1,A,39.08226,-108.71732,CO
NPS,Colorado National Monument,PEREGRINE,1998,Lightning,0.1,A,39.01586,-108.64404,CO
NPS,Colorado National Monument,MOWER,1998,Equipment Use,2.0,B,38.9881,-108.77916,CO
NPS,Colorado National Monument,THUNDER,1998,Lightning,0.1,A,39.04871,-108.6578,CO
NPS,Colorado National Monument,PAINTER,1998,Lightning,0.1,A,39.04616,-108.64992,CO
NPS,Colorado National Monument,NOCANFIND,1998,Lightning,0.1,A,39.05854,-108.70957,CO
NPS,Colorado National Monument,JOHNSON,1999,Debris Burning,3.5,B,39.07341,-108.67268,CO
NPS,Colorado National Monument,HAMBURGER,1999,Lightning,0.1,A,39.10888,-108.74156,CO
NPS,Colorado National Monument,HOTDOG,1999,Lightning,0.1,A,39.09654,-108.73247,CO
NPS,Colorado National Monument,BUNNS,1999,Lightning,0.1,A,39.03414,-108.65964,CO
NPS,Dinosaur National Monument,DITCH,1992,Debris Burning,0.1,A,40.45229,-109.26855,UT
NPS,Dinosaur National Monument,PLUG HATTY,1992,Lightning,0.1,A,40.29282,-108.96793,CO
NPS,Dinosaur National Monument,PINYON,1992,Lightning,0.1,A,40.72679,-108.87403,CO
NPS,Dinosaur National Monument,HORSE,1992,Miscellaneous,1.5,B,40.2693,-108.56653,CO
NPS,Dinosaur National Monument,CONWAY,1992,Lightning,0.1,A,40.71041,-108.87602,CO
NPS,Dinosaur National Monument,ANT HILLS,1992,Lightning,0.1,A,40.5394,-108.89945,CO
NPS,Dinosaur National Monument,PEE WEE,1992,Miscellaneous,0.1,A,40.4492,-108.9846,CO
NPS,Dinosaur National Monument,WILDFIRE,1992,Lightning,0.1,A,40.57414,-109.0123,CO
NPS,Dinosaur National Monument,COTTONWOOD,1992,Lightning,0.1,A,40.64151,-108.80406,CO
NPS,Dinosaur National Monument,DUFUS,1992,Lightning,0.1,A,40.63136,-108.69991,CO
NPS,Dinosaur National Monument,DRENCHED,1992,Lightning,0.1,A,40.45669,-108.94125,CO
NPS,Dinosaur National Monument,SAND RIM,1992,Lightning,0.1,A,40.47445,-109.01205,CO
NPS,Dinosaur National Monument,HIDDEN,1992,Lightning,0.1,A,40.51505,-108.96371,CO
NPS,Dinosaur National Monument,BILLARD,1992,Lightning,0.1,A,40.48173,-108.96419,CO
NPS,Dinosaur National Monument,FINGER,1992,Lightning,0.1,A,40.5135,-108.92419,CO
NPS,Dinosaur National Monument,RIDGE,1992,Lightning,0.1,A,40.43849,-108.65974,CO
NPS,Dinosaur National Monument,POCKET,1992,Lightning,0.1,A,40.48458,-108.97299,CO
NPS,Dinosaur National Monument,HOURGLASS,1992,Lightning,0.1,A,40.47508,-108.87723,CO
NPS,Dinosaur National Monument,WILD 2,1992,Lightning,0.1,A,40.55599,-108.99178,CO
NPS,Dinosaur National Monument,VIOLA'S,1992,Campfire,0.1,A,40.42263,-109.24709,UT
NPS,Dinosaur National Monument,RIPPLING,1992,Lightning,0.1,A,40.57788,-108.98771,CO
NPS,Dinosaur National Monument,SKULL,1992,Lightning,0.1,A,40.26664,-108.96733,CO
NPS,Dinosaur National Monument,UNSEEN,1992,Lightning,0.1,A,40.59905,-108.99964,CO
NPS,Dinosaur National Monument,CRAZY DAY,1992,Lightning,0.2,A,40.52577,-108.80193,CO
NPS,Dinosaur National Monument,WOLF,1993,Lightning,0.1,A,40.35932,-108.60386,CO
NPS,Dinosaur National Monument,WOLF 2,1993,Lightning,0.1,A,40.36129,-108.60045,CO
NPS,Dinosaur National Monument,WOLF 3,1993,Lightning,0.1,A,40.36176,-108.60373,CO
NPS,Dinosaur National Monument,BONE YARD,1993,Debris Burning,0.1,A,40.41259,-109.25063,UT
NPS,Dinosaur National Monument,EAST DINO,1993,Miscellaneous,0.7,B,40.24295,-108.96981,CO
NPS,Dinosaur National Monument,ROADSIDE1,1993,Miscellaneous,0.1,A,40.31672,-108.93407,CO
NPS,Dinosaur National Monument,DUMPSTER,1993,Debris Burning,0.1,A,40.24509,-108.97288,CO
NPS,Dinosaur National Monument,FIRST,1994,Lightning,0.1,A,40.53873,-108.72233,CO
NPS,Dinosaur National Monument,DEERLODGE,1994,Smoking,0.1,A,40.40394,-108.34235,CO
NPS,Dinosaur National Monument,BOWER,1994,Lightning,0.4,B,40.59996,-108.68399,CO
NPS,Dinosaur National Monument,BEAR II,1994,Lightning,0.5,B,40.38276,-108.76492,CO
NPS,Dinosaur National Monument,LAZY Z,1994,Lightning,0.5,B,40.26663,-108.08397,CO
NPS,Dinosaur National Monument,SPLIT 1,1994,Lightning,0.1,A,40.48737,-109.29438,UT
NPS,Dinosaur National Monument,CONFUSION,1994,Lightning,0.1,A,40.44822,-108.68432,CO
NPS,Dinosaur National Monument,HAYSTACK,1994,Lightning,0.1,A,40.45906,-108.67403,CO
NPS,Dinosaur National Monument,SPARCE,1994,Lightning,0.1,A,40.45873,-108.73228,CO
NPS,Dinosaur National Monument,THE BEAR,1994,Lightning,0.5,B,40.45963,-108.69842,CO
NPS,Dinosaur National Monument,OLD BURN,1994,Lightning,0.1,A,40.45929,-108.74648,CO
NPS,Dinosaur National Monument,TANKS,1994,Lightning,0.1,A,40.44734,-108.74941,CO
NPS,Dinosaur National Monument,DRY,1994,Lightning,0.1,A,40.45916,-108.74179,CO
NPS,Dinosaur National Monument,GLOW,1994,Lightning,0.1,A,40.70836,-108.89078,CO
NPS,Dinosaur National Monument,HOLLAND,1994,Lightning,1.0,B,40.50275,-108.15064,CO
NPS,Dinosaur National Monument,RIM,1994,Lightning,0.1,A,40.45692,-108.65174,CO
NPS,Dinosaur National Monument,SPLIT MT 2,1994,Lightning,0.1,A,40.48717,-109.25533,UT
NPS,Dinosaur National Monument,CROSS MTN,1994,Miscellaneous,18.0,C,40.43166,-108.36501,CO
NPS,Dinosaur National Monument,MONDAY,1994,Lightning,0.1,A,40.50256,-108.72673,CO
NPS,Dinosaur National Monument,VISITOR,1994,Lightning,0.1,A,40.55589,-109.03689,CO
NPS,Dinosaur National Monument,BIRTHDAY,1994,Lightning,0.1,A,40.46169,-108.62979,CO
NPS,Dinosaur National Monument,PAYPERIOD,1995,Lightning,0.1,A,40.5344,-108.94488,CO
NPS,Dinosaur National Monument,WILD MTN,1995,Lightning,0.1,A,40.55573,-108.99371,CO
NPS,Dinosaur National Monument,HELLS CYN,1995,Lightning,0.1,A,40.44149,-108.85809,CO
NPS,Dinosaur National Monument,VIVA'S,1995,Lightning,0.1,A,40.47725,-109.06664,UT
NPS,Dinosaur National Monument,OVERLOOK,1995,Lightning,0.1,A,40.48607,-109.0691,UT
NPS,Dinosaur National Monument,POT,1995,Lightning,0.1,A,40.64329,-108.9416,CO
NPS,Dinosaur National Monument,MUD SPRING,1995,Lightning,0.1,A,40.34297,-108.3516,CO
NPS,Dinosaur National Monument,K,1995,Equipment Use,180.0,D,40.28741,-109.04563,CO
NPS,Dinosaur National Monument,DRIP,1995,Lightning,0.2,A,40.24572,-108.95856,CO
NPS,Dinosaur National Monument,WELL,1995,Lightning,0.5,B,40.26409,-108.98398,CO
NPS,Dinosaur National Monument,NOT RAVEN,1995,Missing/Undefined,0.1,A,40.06436,-109.1436,UT
NPS,Dinosaur National Monument,LIMESTONE,1995,Lightning,0.1,A,40.58806,-108.94443,CO
NPS,Dinosaur National Monument,CAMPER,1995,Equipment Use,0.1,A,40.28726,-109.12679,UT
NPS,Dinosaur National Monument,HARDING,1995,Lightning,0.1,A,40.45577,-108.8649,CO
NPS,Dinosaur National Monument,LIMESTONE2,1995,Lightning,0.1,A,40.57269,-108.59688,CO
NPS,Dinosaur National Monument,SNOW,1995,Lightning,0.1,A,40.52906,-109.0519,UT
NPS,Dinosaur National Monument,ROCKY,1995,Lightning,0.1,A,40.45212,-108.99692,CO
NPS,Dinosaur National Monument,RIM,1995,Lightning,0.1,A,40.52106,-108.96549,CO
NPS,Dinosaur National Monument,JUNCTION,1995,Lightning,0.1,A,40.48556,-108.97925,CO
NPS,Dinosaur National Monument,MASSEY,1995,Lightning,1.0,B,40.6076,-108.98306,CO
NPS,Dinosaur National Monument,WARM SPGS2,1995,Lightning,0.1,A,40.5497,-108.9256,CO
NPS,Dinosaur National Monument,WARM SPGS1,1995,Lightning,0.1,A,40.54486,-108.92902,CO
NPS,Dinosaur National Monument,JACK SPGS,1995,Lightning,0.1,A,40.66338,-108.88901,CO
NPS,Dinosaur National Monument,CORRAL,1995,Lightning,2.4,B,40.44249,-108.99184,CO
NPS,Dinosaur National Monument,COOPER,1995,Lightning,0.1,A,40.63477,-108.94598,CO
NPS,Dinosaur National Monument,THANKS,1995,Lightning,0.1,A,40.44012,-108.65555,CO
NPS,Dinosaur National Monument,SCHOONOVER,1995,Lightning,0.1,A,40.4925,-108.77893,CO
NPS,Dinosaur National Monument,WANDA,1995,Lightning,0.1,A,40.57707,-108.90748,CO
NPS,Dinosaur National Monument,OUTLAW,1995,Lightning,0.1,A,40.55511,-108.95151,CO
NPS,Dinosaur National Monument,TRAIL,1995,Lightning,0.1,A,40.50129,-109.02141,CO
NPS,Dinosaur National Monument,BOWER,1995,Lightning,0.1,A,40.4907,-108.71232,CO
NPS,Dinosaur National Monument,IRON,1995,Lightning,0.1,A,40.48483,-109.06683,UT
NPS,Dinosaur National Monument,STRIKE,1995,Lightning,0.1,A,40.45475,-108.88476,CO
NPS,Dinosaur National Monument,ROADS END,1995,Lightning,0.1,A,40.48254,-109.12904,UT
NPS,Dinosaur National Monument,GRAVEYARD,1995,Lightning,0.1,A,40.54133,-109.14283,UT
NPS,Dinosaur National Monument,QUICK,1995,Lightning,0.1,A,40.51641,-108.74785,CO
NPS,Dinosaur National Monument,MOONLIGHT,1995,Lightning,0.1,A,40.49366,-108.68672,CO
NPS,Dinosaur National Monument,DRY WOMAN,1995,Lightning,0.1,A,40.48907,-108.72917,CO
NPS,Dinosaur National Monument,DINOSAUR,1996,Lightning,7.0,B,40.24229,-108.97387,CO
NPS,Dinosaur National Monument,LIMESTONE,1996,Lightning,0.1,A,40.57097,-108.94543,CO
NPS,Dinosaur National Monument,E WINNIE,1996,Lightning,0.1,A,40.67761,-108.88743,CO
NPS,Dinosaur National Monument,STATE LINE,1996,Lightning,0.1,A,40.30245,-109.04844,CO
NPS,Dinosaur National Monument,RIPPLING,1996,Lightning,1.5,B,40.59764,-108.98405,CO
NPS,Dinosaur National Monument,BULL DRAW,1996,Lightning,0.1,A,39.87748,-108.81808,CO
NPS,Dinosaur National Monument,20,1996,Lightning,0.1,A,40.65427,-108.90882,CO
NPS,Dinosaur National Monument,RED ROCK I,1996,Lightning,0.1,A,40.47719,-108.96121,CO
NPS,Dinosaur National Monument,BENCH,1996,Lightning,0.1,A,40.4899,-108.92267,CO
NPS,Dinosaur National Monument,RED ROCKII,1996,Lightning,0.1,A,40.47218,-108.96554,CO
NPS,Dinosaur National Monument,BOWER,1996,Lightning,0.1,A,40.49702,-108.75275,CO
NPS,Dinosaur National Monument,L.D.FALLS,1996,Lightning,2201.0,F,40.6317,-108.9124,CO
NPS,Dinosaur National Monument,BLACKRIDGE,1996,Lightning,0.1,A,40.65133,-108.94715,CO
NPS,Dinosaur National Monument,ZENOBIA2,1996,Lightning,2149.0,F,40.6318,-108.90502,CO
NPS,Dinosaur National Monument,ANTS,1996,Lightning,0.1,A,40.53504,-108.88506,CO
NPS,Dinosaur National Monument,IRON MINE,1996,Lightning,0.1,A,40.57558,-108.92435,CO
NPS,Dinosaur National Monument,POOL CREEK,1996,Lightning,0.1,A,40.48378,-109.0406,CO
NPS,Dinosaur National Monument,WILD MTN,1996,Lightning,0.1,A,40.55845,-109.01473,CO
NPS,Dinosaur National Monument,ROUNDTOP#1,1996,Lightning,0.1,A,40.4571,-108.91473,CO
NPS,Dinosaur National Monument,ROUNDTOP#2,1996,Lightning,0.1,A,40.45967,-108.91893,CO
NPS,Dinosaur National Monument,STARVATION,1996,Lightning,0.1,A,40.51897,-108.82939,CO
NPS,Dinosaur National Monument,HAYSTACK,1996,Lightning,0.1,A,40.46028,-108.70862,CO
NPS,Dinosaur National Monument,CORRAL,1996,Lightning,0.1,A,40.4721,-108.62131,CO
NPS,Dinosaur National Monument,MINE,1996,Lightning,2.5,B,40.57409,-108.92699,CO
NPS,Dinosaur National Monument,WILD,1996,Lightning,823.0,E,40.56381,-108.99754,CO
NPS,Dinosaur National Monument,LIMESTONE2,1996,Lightning,0.1,A,40.59749,-108.91922,CO
NPS,Dinosaur National Monument,ALCOVE,1996,Lightning,0.1,A,40.58428,-108.94442,CO
NPS,Dinosaur National Monument,BLIND,1996,Lightning,0.1,A,40.4585,-108.82771,CO
NPS,Dinosaur National Monument,HELLS,1996,Lightning,0.1,A,40.43006,-108.88691,CO
NPS,Dinosaur National Monument,DUDLEY,1996,Lightning,0.1,A,40.42207,-109.01485,CO
NPS,Dinosaur National Monument,BASE,1996,Lightning,0.3,B,40.44704,-108.77035,CO
NPS,Dinosaur National Monument,BASIN,1996,Lightning,0.1,A,40.49663,-108.71379,CO
NPS,Dinosaur National Monument,BOUNDRY,1996,Lightning,0.1,A,40.51092,-108.73832,CO
NPS,Dinosaur National Monument,JUNCTION,1996,Lightning,0.1,A,40.49799,-108.99093,CO
NPS,Dinosaur National Monument,PERSISTENT,1996,Lightning,163.0,D,40.58343,-109.00011,CO
NPS,Dinosaur National Monument,MP7,1996,Arson,10.0,C,40.23509,-108.9225,CO
NPS,Dinosaur National Monument,PEARL,1996,Lightning,0.1,A,40.47349,-108.98036,CO
NPS,Dinosaur National Monument,TANKS,1996,Lightning,0.1,A,40.44862,-108.7569,CO
NPS,Dinosaur National Monument,ROSS,1996,Lightning,0.8,B,40.67517,-108.8856,CO
NPS,Dinosaur National Monument,RIDGE,1996,Lightning,0.3,B,40.66628,-108.88202,CO
NPS,Dinosaur National Monument,TRAIL DRAW,1996,Lightning,0.1,A,40.4865,-109.04482,CO
NPS,Dinosaur National Monument,RAILROAD,1996,Arson,8.0,B,40.2348,-108.92302,CO
NPS,Dinosaur National Monument,HARDING,1996,Lightning,3.0,B,40.4597,-108.86039,CO
NPS,Dinosaur National Monument,REDROCK3,1996,Lightning,6.0,B,40.4695,-108.96527,CO
NPS,Dinosaur National Monument,PLATEAU,1996,Lightning,0.1,A,40.45355,-109.17024,UT
NPS,Dinosaur National Monument,IRON SPGS,1996,Lightning,0.1,A,40.48024,-109.03585,CO
NPS,Dinosaur National Monument,FLAT,1996,Lightning,0.1,A,40.50416,-108.95175,CO
NPS,Dinosaur National Monument,SAND,1996,Lightning,0.1,A,40.49765,-108.9973,CO
NPS,Dinosaur National Monument,PEARL #2,1996,Lightning,0.1,A,40.46042,-108.98149,CO
NPS,Dinosaur National Monument,RAWS,1996,Lightning,0.1,A,40.52017,-108.93487,CO
NPS,Dinosaur National Monument,PEARL 3,1996,Lightning,0.1,A,40.45751,-108.99262,CO
NPS,Dinosaur National Monument,REDD,1996,Lightning,0.1,A,40.46908,-108.82832,CO
NPS,Dinosaur National Monument,HARPERS,1996,Lightning,0.1,A,40.52655,-109.03126,CO
NPS,Dinosaur National Monument,JUNCTION,1997,Lightning,0.1,A,40.50138,-109.00041,CO
NPS,Dinosaur National Monument,LIME,1997,Lightning,0.1,A,40.57861,-108.94569,CO
NPS,Dinosaur National Monument,RED,1997,Lightning,0.1,A,40.47046,-108.93177,CO
NPS,Dinosaur National Monument,IRON,1997,Lightning,0.1,A,40.57388,-108.92117,CO
NPS,Dinosaur National Monument,LANGLEY,1997,Lightning,0.1,A,40.56177,-108.60596,CO
NPS,Dinosaur National Monument,WARM,1997,Lightning,0.1,A,40.54937,-108.91841,CO
NPS,Dinosaur National Monument,VIVAS,1997,Lightning,0.1,A,40.4723,-109.0497,CO
NPS,Dinosaur National Monument,TWIN,1997,Lightning,0.1,A,40.50238,-108.92197,CO
NPS,Dinosaur National Monument,MARTHAS,1997,Lightning,0.1,A,40.45417,-108.87961,CO
NPS,Dinosaur National Monument,HELLS,1997,Lightning,0.1,A,40.43882,-108.89836,CO
NPS,Dinosaur National Monument,CASTLE,1997,Lightning,0.1,A,40.46802,-108.87567,CO
NPS,Dinosaur National Monument,OUTLAW,1997,Lightning,0.1,A,40.55562,-108.9452,CO
NPS,Dinosaur National Monument,WALTER,1997,Equipment Use,10.0,C,40.8366,-109.07651,UT
NPS,Dinosaur National Monument,JENNY,1997,Lightning,0.1,A,40.52109,-108.98317,CO
NPS,Dinosaur National Monument,SAND RIM,1997,Lightning,0.1,A,40.52125,-108.97744,CO
NPS,Dinosaur National Monument,SOB,1997,Lightning,0.1,A,40.47128,-109.18886,UT
NPS,Dinosaur National Monument,MAGNET,1997,Smoking,0.1,A,40.38283,-108.99724,CO
NPS,Dinosaur National Monument,REDCANYON,1997,Lightning,0.1,A,40.45189,-108.94637,CO
NPS,Dinosaur National Monument,CASTLE,1997,Lightning,0.1,A,40.46727,-108.88802,CO
NPS,Dinosaur National Monument,WET,1997,Lightning,0.1,A,40.55026,-108.93794,CO
NPS,Dinosaur National Monument,WHIRLPOOL,1997,Lightning,0.1,A,40.53083,-109.06274,UT
NPS,Dinosaur National Monument,BLACKRIDGE,1997,Lightning,0.1,A,40.6471,-108.94262,CO
NPS,Dinosaur National Monument,JENNY,1998,Lightning,0.1,A,40.51709,-108.97728,CO
NPS,Dinosaur National Monument,HILLSIDE,1998,Lightning,0.1,A,40.48992,-109.01892,CO
NPS,Dinosaur National Monument,COVE,1998,Lightning,0.1,A,40.50983,-109.12396,UT
NPS,Dinosaur National Monument,RAINBOW,1998,Lightning,287.0,D,40.50555,-109.13057,UT
NPS,Dinosaur National Monument,JOHNSON,1998,Lightning,459.0,E,40.45595,-108.8697,CO
NPS,Dinosaur National Monument,WHIRLPOOL,1998,Lightning,0.1,A,40.54228,-109.03546,CO
NPS,Dinosaur National Monument,GREEN,1998,Campfire,0.1,A,40.41921,-109.24337,UT
NPS,Dinosaur National Monument,OUTLAW,1998,Lightning,0.1,A,40.57857,-108.91614,CO
NPS,Dinosaur National Monument,WILD MTN 1,1998,Lightning,0.1,A,40.55602,-108.99694,CO
NPS,Dinosaur National Monument,JACKSPRING,1998,Lightning,0.1,A,40.68051,-108.87972,CO
NPS,Dinosaur National Monument,WILD MTN 2,1998,Lightning,0.1,A,40.55957,-108.97138,CO
NPS,Dinosaur National Monument,MASSEY,1998,Lightning,0.1,A,40.6076,-108.99447,CO
NPS,Dinosaur National Monument,RADIO,1998,Lightning,0.5,B,40.57286,-109.00207,CO
NPS,Dinosaur National Monument,TRAILERDRA,1998,Lightning,0.1,A,40.66568,-108.89983,CO
NPS,Dinosaur National Monument,LIMEY,1998,Lightning,0.1,A,40.58852,-108.95135,CO
NPS,Dinosaur National Monument,IRONSPRING,1998,Lightning,120.0,D,40.47544,-109.01779,CO
NPS,Dinosaur National Monument,QUICK,1998,Lightning,0.1,A,40.50449,-108.9959,CO
NPS,Dinosaur National Monument,SCHOOLBOY,1998,Lightning,0.1,A,40.47536,-109.20133,UT
NPS,Dinosaur National Monument,NEWYEAR,1998,Lightning,0.1,A,40.45688,-109.01757,CO
NPS,Dinosaur National Monument,OUTLAW,1999,Lightning,0.1,A,40.49923,-108.92565,CO
NPS,Dinosaur National Monument,BENCH,1999,Lightning,0.1,A,40.46441,-108.932,CO
NPS,Dinosaur National Monument,HOGISLAND,1999,Campfire,0.5,B,40.52297,-109.14923,UT
NPS,Dinosaur National Monument,NOTELL,1999,Campfire,0.1,A,40.523,-109.14919,UT
NPS,Dinosaur National Monument,LADDIE,1999,Lightning,0.1,A,40.4748,-108.91219,CO
NPS,Dinosaur National Monument,CAMPER,1999,Miscellaneous,0.1,A,40.4498,-108.52316,CO
NPS,Dinosaur National Monument,NOTHING,1999,Lightning,0.1,A,40.44389,-109.19482,UT
NPS,Dinosaur National Monument,RED ROCK,1999,Lightning,80.0,C,40.46352,-108.92569,CO
NPS,Dinosaur National Monument,HAWKEYE,1999,Lightning,0.1,A,40.44503,-108.73936,CO
NPS,Dinosaur National Monument,RETIRE,1999,Lightning,2.0,B,40.71504,-108.88169,CO
NPS,Dinosaur National Monument,BILLIARD,1999,Lightning,0.1,A,40.48339,-108.96107,CO
NPS,Dinosaur National Monument,WET,1999,Lightning,0.1,A,40.47024,-108.90688,CO
NPS,Dinosaur National Monument,BUDDY,1999,Lightning,0.1,A,40.45383,-108.9248,CO
NPS,Dinosaur National Monument,HAIRCUT,1999,Lightning,0.1,A,40.44769,-108.9302,CO
NPS,Dinosaur National Monument,SOB,1999,Lightning,20.0,C,40.46759,-109.19455,UT
NPS,Dinosaur National Monument,BOWER,1999,Lightning,0.1,A,40.50968,-108.73308,CO
NPS,Dinosaur National Monument,5 SPRINGS,1999,Lightning,0.1,A,40.50191,-108.76051,CO
NPS,Dinosaur National Monument,LIMESTONE,1999,Lightning,0.1,A,40.59818,-108.93834,CO
NPS,Florissant Fossil Beds National Monument,MAMMOTH,1996,Lightning,0.2,A,38.90047,-105.25888,CO
NPS,Florissant Fossil Beds National Monument,HOMESTAKE,1998,Lightning,0.1,A,38.90186,-105.29193,CO
NPS,Florissant Fossil Beds National Monument,CEMETERY,1999,Miscellaneous,3.0,B,38.93048,-105.27409,CO
NPS,Great Sand Dunes National Park and Preserve,REWERS,1992,Lightning,3.0,B,37.7,-105.5672,CO
NPS,Great Sand Dunes National Park and Preserve,SAND CASTL,1992,Lightning,0.3,B,37.75,-105.5172,CO
NPS,Great Sand Dunes National Park and Preserve,HORSECREEK,1996,Lightning,0.1,A,37.77819,-105.50481,CO
NPS,Great Sand Dunes National Park and Preserve,FINGERS,1996,Lightning,21.6,C,37.69766,-105.56621,CO
NPS,Great Sand Dunes National Park and Preserve,BUDLIGHT,1997,Campfire,0.1,A,37.766,-105.5729,CO
NPS,Great Sand Dunes National Park and Preserve,GRACE,1998,Campfire,0.1,A,37.7944,-105.5078,CO
NPS,Great Sand Dunes National Park and Preserve,DRILLER,1999,Equipment Use,0.1,A,37.78833,-105.6509,CO
NPS,Mesa Verde National Park,CHAPIN 1,1992,Lightning,0.1,A,37.2167,-108.5006,CO
NPS,Mesa Verde National Park,ENTRANCE,1992,Lightning,0.1,A,37.3333,-108.4173,CO
NPS,Mesa Verde National Park,ENTRANCE 2,1992,Lightning,0.1,A,37.3333,-108.4173,CO
NPS,Mesa Verde National Park,WETHERILL,1992,Lightning,0.1,A,37.2,-108.534,CO
NPS,Mesa Verde National Park,WEST RIM I,1992,Lightning,0.1,A,37.1667,-108.6506,CO
NPS,Mesa Verde National Park,WEST RIMII,1992,Lightning,0.1,A,37.1667,-108.634,CO
NPS,Mesa Verde National Park,COWBOY I,1992,Lightning,0.1,A,37.1,-108.634,CO
NPS,Mesa Verde National Park,COWBOY II,1992,Lightning,0.1,A,37.1,-108.6173,CO
NPS,Mesa Verde National Park,CHIMNEY,1992,Lightning,0.1,A,37.0667,-108.7006,CO
NPS,Mesa Verde National Park,WEST UTE 1,1992,Lightning,0.1,A,37.1833,-108.5673,CO
NPS,Mesa Verde National Park,CHAPIN II,1992,Lightning,0.1,A,37.2333,-108.5006,CO
NPS,Mesa Verde National Park,B CUT,1992,Lightning,0.1,A,37.2833,-108.434,CO
NPS,Mesa Verde National Park,SPRUCETREE,1992,Children,0.1,A,37.3167,-108.484,CO
NPS,Mesa Verde National Park,GREASEWOOD,1992,Lightning,0.1,A,37.05,-108.4173,CO
NPS,Mesa Verde National Park,EAGLE EYE,1992,Lightning,0.1,A,37.1167,-108.5006,CO
NPS,Mesa Verde National Park,MUG HOUSE,1992,Lightning,0.1,A,37.2,-108.534,CO
NPS,Mesa Verde National Park,LOOKOUT,1992,Lightning,0.1,A,37.3333,-108.4173,CO
NPS,Mesa Verde National Park,BADGER,1992,Lightning,0.1,A,37.1667,-108.5173,CO
NPS,Mesa Verde National Park,CHAPIN 1,1993,Lightning,0.1,A,37.2,-108.5173,CO
NPS,Mesa Verde National Park,PARK 1,1993,Lightning,0.1,A,37.1667,-108.4673,CO
NPS,Mesa Verde National Park,PARK 2,1993,Lightning,0.1,A,37.1667,-108.4673,CO
NPS,Mesa Verde National Park,ENTRANCE,1993,Equipment Use,0.1,A,37.3333,-108.4006,CO
NPS,Mesa Verde National Park,FAR VIEW,1993,Lightning,0.1,A,37.25,-108.5006,CO
NPS,Mesa Verde National Park,WETHERILL1,1993,Lightning,0.1,A,37.2833,-108.5173,CO
NPS,Mesa Verde National Park,WETHERILL2,1993,Lightning,0.1,A,37.2833,-108.5173,CO
NPS,Mesa Verde National Park,PARK 3,1993,Lightning,0.1,A,37.1833,-108.484,CO
NPS,Mesa Verde National Park,WETHERILL3,1993,Lightning,0.1,A,37.2833,-108.5173,CO
NPS,Mesa Verde National Park,PRATER RID,1993,Lightning,0.1,A,37.2167,-108.434,CO
NPS,Mesa Verde National Park,FAR VIEW 3,1993,Lightning,0.1,A,37.2833,-108.4506,CO
NPS,Mesa Verde National Park,PARK 4,1993,Lightning,0.1,A,37.2167,-108.484,CO
NPS,Mesa Verde National Park,TRAM RD,1993,Lightning,0.1,A,37.1667,-108.5006,CO
NPS,Mesa Verde National Park,N MOCCASIN,1993,Lightning,0.2,A,37.2,-108.6173,CO
NPS,Mesa Verde National Park,PITHOUSE,1993,Lightning,0.1,A,37.1667,-108.484,CO
NPS,Mesa Verde National Park,SCHOOL SCT,1993,Lightning,0.1,A,37.1833,-108.4506,CO
NPS,Mesa Verde National Park,CHAPIN 2,1993,Lightning,0.1,A,37.0,-108.0006,CO
NPS,Mesa Verde National Park,CLIFF,1993,Lightning,0.1,A,37.1667,-108.4673,CO
NPS,Mesa Verde National Park,FARVIEW 4,1993,Lightning,0.1,A,37.25,-108.5006,CO
NPS,Mesa Verde National Park,PITHOUSE 2,1993,Lightning,0.1,A,37.1667,-108.484,CO
NPS,Mesa Verde National Park,CHAPIN 3,1993,Lightning,0.1,A,37.21688,-108.49732,CO
NPS,Mesa Verde National Park,CAT LINE,1993,Lightning,0.1,A,37.1833,-108.4506,CO
NPS,Mesa Verde National Park,PITHOUSE4,1994,Lightning,0.1,A,37.1167,-108.5006,CO
NPS,Mesa Verde National Park,CHAPIN 1,1994,Lightning,0.1,A,37.2333,-108.5006,CO
NPS,Mesa Verde National Park,FARVIEW 1,1994,Lightning,0.1,A,37.25,-108.484,CO
NPS,Mesa Verde National Park,FOUR WAY,1994,Lightning,0.1,A,37.1833,-108.484,CO
NPS,Mesa Verde National Park,FARVIEW 2,1994,Lightning,0.1,A,37.24755,-108.48734,CO
NPS,Mesa Verde National Park,PARK 1,1994,Lightning,0.1,A,37.2333,-108.4673,CO
NPS,Mesa Verde National Park,ENTRANCE,1994,Lightning,0.1,A,37.3167,-108.4173,CO
NPS,Mesa Verde National Park,PARK 2,1994,Lightning,0.1,A,37.2167,-108.484,CO
NPS,Mesa Verde National Park,NAVAJO,1994,Lightning,0.1,A,37.2,-108.5173,CO
NPS,Mesa Verde National Park,MOCCASIN,1994,Lightning,0.1,A,37.2167,-108.4506,CO
NPS,Mesa Verde National Park,CHAPIN 2,1994,Lightning,0.1,A,37.2167,-108.5006,CO
NPS,Mesa Verde National Park,CHAPIN 4,1994,Lightning,0.1,A,37.1833,-108.5006,CO
NPS,Mesa Verde National Park,CHAPIN 3,1994,Lightning,0.6,B,37.2,-108.5006,CO
NPS,Mesa Verde National Park,NAVAJO 2,1994,Lightning,0.1,A,37.2,-108.5006,CO
NPS,Mesa Verde National Park,LONGSPUR,1994,Lightning,0.1,A,37.2667,-108.5506,CO
NPS,Mesa Verde National Park,LONG SPUR3,1994,Lightning,0.1,A,37.2833,-108.534,CO
NPS,Mesa Verde National Park,LONG SPUR2,1994,Lightning,0.1,A,37.2833,-108.534,CO
NPS,Mesa Verde National Park,WETHERILL1,1994,Lightning,0.1,A,37.2,-108.534,CO
NPS,Mesa Verde National Park,WETHERILL2,1994,Lightning,0.3,B,37.2,-108.5506,CO
NPS,Mesa Verde National Park,EAST FORK,1994,Lightning,0.1,A,37.1833,-108.584,CO
NPS,Mesa Verde National Park,MOCCASIN 1,1994,Lightning,0.1,A,37.1667,-108.434,CO
NPS,Mesa Verde National Park,MOCCASIN 2,1994,Lightning,0.1,A,37.1333,-108.4506,CO
NPS,Mesa Verde National Park,EAGLE EYE,1994,Lightning,0.1,A,37.1167,-108.534,CO
NPS,Mesa Verde National Park,CHAPIN 6,1994,Lightning,0.1,A,37.1167,-108.5006,CO
NPS,Mesa Verde National Park,CHAPIN 5,1994,Lightning,0.1,A,37.1167,-108.5006,CO
NPS,Mesa Verde National Park,LONG MESA,1994,Lightning,0.1,A,37.2,-108.534,CO
NPS,Mesa Verde National Park,PRATER,1994,Lightning,0.1,A,37.25,-108.4506,CO
NPS,Mesa Verde National Park,SCHOOL,1994,Lightning,0.1,A,37.25,-108.4506,CO
NPS,Mesa Verde National Park,CHAPIN 7,1994,Lightning,0.1,A,37.2,-108.5006,CO
NPS,Mesa Verde National Park,BOBCAT,1994,Lightning,0.1,A,37.25,-108.3506,CO
NPS,Mesa Verde National Park,MOCCASIN 3,1994,Lightning,0.1,A,37.1667,-108.4173,CO
NPS,Mesa Verde National Park,SCHOOL 2,1994,Lightning,0.1,A,37.25,-108.4506,CO
NPS,Mesa Verde National Park,W ENTRANCE,1994,Lightning,0.1,A,37.3333,-108.4173,CO
NPS,Mesa Verde National Park,LONG HOUSE,1994,Lightning,0.1,A,37.1833,-108.534,CO
NPS,Mesa Verde National Park,LONG MESA2,1994,Lightning,0.1,A,37.1667,-108.5006,CO
NPS,Mesa Verde National Park,EAGLE EYE2,1994,Lightning,0.1,A,37.0833,-108.534,CO
NPS,Mesa Verde National Park,EAGLE EYE3,1994,Lightning,0.1,A,37.1167,-108.534,CO
NPS,Mesa Verde National Park,PARK POINT,1994,Lightning,1.5,B,37.2833,-108.4673,CO
NPS,Mesa Verde National Park,NORTH RIM,1994,Lightning,0.1,A,37.2667,-108.5173,CO
NPS,Mesa Verde National Park,WEBER 3,1994,Lightning,0.1,A,37.25,-108.334,CO
NPS,Mesa Verde National Park,PARK 3,1994,Lightning,0.1,A,37.2,-108.5006,CO
NPS,Mesa Verde National Park,CHAPIN 9,1994,Lightning,0.1,A,37.1639,-108.4673,CO
NPS,Mesa Verde National Park,WICKIUP 1,1994,Lightning,0.1,A,37.1833,-108.5006,CO
NPS,Mesa Verde National Park,BATTLESHIP,1994,Lightning,0.1,A,37.25,-108.5006,CO
NPS,Mesa Verde National Park,FARVIEW 3,1994,Lightning,2.0,B,37.2333,-108.5006,CO
NPS,Mesa Verde National Park,WETHERILL3,1994,Lightning,0.1,A,37.2167,-108.534,CO
NPS,Mesa Verde National Park,MOCCASIN 5,1994,Lightning,0.1,A,37.25,-108.434,CO
NPS,Mesa Verde National Park,FOUR WAY 1,1994,Lightning,0.1,A,37.1833,-108.484,CO
NPS,Mesa Verde National Park,PARK 4,1994,Lightning,0.1,A,37.1667,-108.4506,CO
NPS,Mesa Verde National Park,MOCCASIN 6,1994,Lightning,0.1,A,37.1833,-108.434,CO
NPS,Mesa Verde National Park,LONG MESA3,1994,Lightning,0.1,A,37.2,-108.5006,CO
NPS,Mesa Verde National Park,BALCONY,1994,Lightning,0.1,A,37.1667,-108.4506,CO
NPS,Mesa Verde National Park,AQUEDUCT,1994,Lightning,0.1,A,37.3,-108.4006,CO
NPS,Mesa Verde National Park,POWERLINE,1994,Lightning,0.1,A,37.2833,-108.5006,CO
NPS,Mesa Verde National Park,FRINK,1994,Lightning,0.1,A,37.2833,-108.5006,CO
NPS,Mesa Verde National Park,AQUEDUCT 2,1994,Lightning,0.1,A,37.3,-108.4006,CO
NPS,Mesa Verde National Park,CHAPIN 10,1994,Lightning,0.1,A,37.2167,-108.5006,CO
NPS,Mesa Verde National Park,PULPIT,1994,Lightning,0.1,A,37.2667,-108.6006,CO
NPS,Mesa Verde National Park,LEWIS 2,1994,Lightning,0.1,A,37.1167,-108.4173,CO
NPS,Mesa Verde National Park,ENTRANCE 2,1994,Lightning,0.1,A,37.3333,-108.4173,CO
NPS,Mesa Verde National Park,CHAPIN 11,1994,Lightning,0.1,A,37.2333,-108.5006,CO
NPS,Mesa Verde National Park,CHAPIN 12,1994,Lightning,0.1,A,37.15,-108.484,CO
NPS,Mesa Verde National Park,PARK 2,1995,Lightning,0.1,A,37.2075,-108.4756,CO
NPS,Mesa Verde National Park,PARK 3,1995,Lightning,0.1,A,37.2292,-108.4751,CO
NPS,Mesa Verde National Park,PARK 1,1995,Lightning,0.1,A,37.1847,-108.4684,CO
NPS,Mesa Verde National Park,PARK 5,1995,Lightning,0.1,A,37.2083,-108.5006,CO
NPS,Mesa Verde National Park,CEDAR TREE,1995,Lightning,0.1,A,37.2083,-108.5006,CO
NPS,Mesa Verde National Park,PARK 4,1995,Lightning,0.1,A,37.2083,-108.5006,CO
NPS,Mesa Verde National Park,CHAPIN 1,1995,Lightning,0.1,A,37.225,-108.5145,CO
NPS,Mesa Verde National Park,MILLION,1995,Lightning,0.1,A,37.2083,-108.5006,CO
NPS,Mesa Verde National Park,SODA POINT,1995,Lightning,0.1,A,37.1667,-108.5006,CO
NPS,Mesa Verde National Park,ENTRANCE,1995,Lightning,0.2,A,37.3458,-108.4145,CO
NPS,Mesa Verde National Park,PARK 6,1995,Lightning,0.1,A,37.1917,-108.4756,CO
NPS,Mesa Verde National Park,PARK 7,1995,Lightning,0.1,A,37.2083,-108.4673,CO
NPS,Mesa Verde National Park,ENTRANCE 2,1995,Lightning,0.1,A,37.3417,-108.4173,CO
NPS,Mesa Verde National Park,WETHERILL1,1995,Lightning,0.1,A,37.1833,-108.5423,CO
NPS,Mesa Verde National Park,FEWKES CYN,1995,Lightning,0.1,A,37.1667,-108.5006,CO
NPS,Mesa Verde National Park,WHITES,1995,Lightning,1.3,B,37.2375,-108.3798,CO
NPS,Mesa Verde National Park,WATERS,1995,Lightning,0.1,A,37.25,-108.3756,CO
NPS,Mesa Verde National Park,MOCCASIN 1,1995,Lightning,0.1,A,37.2336,-108.4587,CO
NPS,Mesa Verde National Park,NAVAJO 1,1995,Lightning,0.3,B,37.2083,-108.5423,CO
NPS,Mesa Verde National Park,PRATER,1995,Lightning,0.1,A,37.2525,-108.4179,CO
NPS,Mesa Verde National Park,PARK POINT,1995,Miscellaneous,0.1,A,37.2811,-108.462,CO
NPS,Mesa Verde National Park,MOCCASIN1,1996,Lightning,0.1,A,37.2083,-108.4256,CO
NPS,Mesa Verde National Park,BONEYARD,1996,Lightning,0.1,A,37.2042,-108.4881,CO
NPS,Mesa Verde National Park,WETHERILL1,1996,Lightning,0.1,A,37.2,-108.5423,CO
NPS,Mesa Verde National Park,PRATER,1996,Lightning,0.2,A,37.2681,-108.4173,CO
NPS,Mesa Verde National Park,MOCCASIN 2,1996,Lightning,0.1,A,37.2167,-108.459,CO
NPS,Mesa Verde National Park,POWERLINE3,1996,Lightning,0.1,A,37.2972,-108.5123,CO
NPS,Mesa Verde National Park,PARK MESA1,1996,Lightning,0.1,A,37.2142,-108.482,CO
NPS,Mesa Verde National Park,LIL'MOCCAS,1996,Lightning,0.1,A,37.23,-108.4356,CO
NPS,Mesa Verde National Park,MOCCASIN3,1996,Lightning,0.1,A,37.2333,-108.4506,CO
NPS,Mesa Verde National Park,HELIBASE,1996,Lightning,0.2,A,37.1667,-108.5006,CO
NPS,Mesa Verde National Park,N.E. MOCCA,1996,Lightning,0.5,B,37.2083,-108.4256,CO
NPS,Mesa Verde National Park,WEBER,1996,Lightning,0.3,B,37.2583,-108.3409,CO
NPS,Mesa Verde National Park,S.WETHERIL,1996,Lightning,0.1,A,37.175,-108.509,CO
NPS,Mesa Verde National Park,CHAPIN 1,1996,Lightning,0.1,A,37.2,-108.484,CO
NPS,Mesa Verde National Park,N. WETHERL,1996,Lightning,0.1,A,37.2089,-108.5423,CO
NPS,Mesa Verde National Park,RUINS RD.,1996,Lightning,0.1,A,37.175,-108.5006,CO
NPS,Mesa Verde National Park,WILDHORSE,1996,Lightning,0.1,A,37.1833,-108.5506,CO
NPS,Mesa Verde National Park,BONEAWL,1996,Lightning,0.1,A,37.1556,-108.4456,CO
NPS,Mesa Verde National Park,PARK MESA2,1996,Lightning,0.1,A,37.2417,-108.509,CO
NPS,Mesa Verde National Park,PIT HOUSE,1996,Lightning,0.1,A,37.2,-108.509,CO
NPS,Mesa Verde National Park,CHAPIN 2,1996,Lightning,0.3,B,37.2083,-108.5006,CO
NPS,Mesa Verde National Park,CHAPIN3,1996,Miscellaneous,0.2,A,37.2256,-108.4979,CO
NPS,Mesa Verde National Park,MONTEZUMA,1996,Miscellaneous,0.2,A,37.2969,-108.442,CO
NPS,Mesa Verde National Park,PARK #3,1996,Lightning,0.1,A,37.2333,-108.459,CO
NPS,Mesa Verde National Park,PARK5,1996,Lightning,0.1,A,37.2925,-108.3562,CO
NPS,Mesa Verde National Park,PARK4,1996,Lightning,0.1,A,37.23377,-108.46911,CO
NPS,Mesa Verde National Park,WILDHORSE2,1996,Lightning,0.2,A,37.2169,-108.5812,CO
NPS,Mesa Verde National Park,TELEPHONE,1996,Lightning,0.1,A,37.1931,-108.4881,CO
NPS,Mesa Verde National Park,CHAPIN 4,1996,Lightning,0.2,A,37.2631,-108.4993,CO
NPS,Mesa Verde National Park,BONEAWL 2,1996,Lightning,0.1,A,37.1833,-108.4673,CO
NPS,Mesa Verde National Park,LITL MOC 2,1996,Lightning,0.1,A,37.2417,-108.4423,CO
NPS,Mesa Verde National Park,MOCCASIN4,1996,Lightning,0.1,A,37.2458,-108.4465,CO
NPS,Mesa Verde National Park,MOCCASIN5,1996,Lightning,3.5,B,37.2544,-108.4326,CO
NPS,Mesa Verde National Park,CHAPIN 5,1996,Lightning,4781.0,F,37.2294,-108.5004,CO
NPS,Mesa Verde National Park,BADGER HOU,1996,Lightning,0.1,A,37.1872,-108.5301,CO
NPS,Mesa Verde National Park,SO BADGER,1996,Lightning,0.1,A,37.17926,-108.53053,CO
NPS,Mesa Verde National Park,EAGLE EYE,1996,Lightning,0.1,A,37.1497,-108.5654,CO
NPS,Mesa Verde National Park,WETHERILL2,1996,Lightning,0.1,A,37.1892,-108.532,CO
NPS,Mesa Verde National Park,SO NAVAJO,1996,Lightning,0.1,A,37.1819,-108.4984,CO
NPS,Mesa Verde National Park,SO WILDHOR,1996,Lightning,0.1,A,37.1819,-108.4998,CO
NPS,Mesa Verde National Park,WILDHORSE3,1996,Lightning,0.1,A,37.1842,-108.5523,CO
NPS,Mesa Verde National Park,WETHERILL3,1996,Lightning,0.1,A,37.15739,-108.51682,CO
NPS,Mesa Verde National Park,EAST RIM,1996,Lightning,0.1,A,37.2358,-108.3634,CO
NPS,Mesa Verde National Park,WHITESMESA,1996,Lightning,0.1,A,37.23,-108.3979,CO
NPS,Mesa Verde National Park,PARK 6,1996,Lightning,0.1,A,37.2119,-108.4723,CO
NPS,Mesa Verde National Park,WETHERILL4,1996,Lightning,0.1,A,37.1803,-108.5276,CO
NPS,Mesa Verde National Park,SKEET,1996,Lightning,0.1,A,37.2983,-108.507,CO
NPS,Mesa Verde National Park,ROCKYRIDGE,1996,Lightning,1.0,B,37.2172,-108.6087,CO
NPS,Mesa Verde National Park,WEBER 3,1996,Lightning,0.5,B,37.25,-108.3006,CO
NPS,Mesa Verde National Park,NORTH RIM,1996,Lightning,0.1,A,37.2844,-108.524,CO
NPS,Mesa Verde National Park,LONGMESA 1,1996,Lightning,0.1,A,37.225,-108.5423,CO
NPS,Mesa Verde National Park,LONG MESA2,1996,Lightning,0.1,A,37.225,-108.5256,CO
NPS,Mesa Verde National Park,LONG MESA3,1996,Lightning,0.1,A,37.1978,-108.5223,CO
NPS,Mesa Verde National Park,N NAVAJO,1996,Lightning,0.1,A,37.2333,-108.5212,CO
NPS,Mesa Verde National Park,PRATER 2,1996,Lightning,0.1,A,37.2361,-108.4201,CO
NPS,Mesa Verde National Park,MILE10,1997,Miscellaneous,0.1,A,37.275,-108.4595,CO
NPS,Mesa Verde National Park,SPRUCE TWO,1997,Lightning,0.1,A,37.1969,-108.4831,CO
NPS,Mesa Verde National Park,TRAM,1997,Lightning,0.3,B,37.1833,-108.5312,CO
NPS,Mesa Verde National Park,SPRUCE 1,1997,Lightning,0.1,A,37.2028,-108.4956,CO
NPS,Mesa Verde National Park,NAVAJO 1,1997,Lightning,0.1,A,37.1861,-108.5076,CO
NPS,Mesa Verde National Park,PARK POINT,1997,Lightning,0.1,A,37.2886,-108.4634,CO
NPS,Mesa Verde National Park,EAST CANYO,1997,Lightning,1.0,B,37.2444,-108.2645,CO
NPS,Mesa Verde National Park,PETROGLYPH,1997,Lightning,0.1,A,37.1764,-108.4959,CO
NPS,Mesa Verde National Park,SECTION 16,1997,Lightning,0.1,A,37.2942,-108.5118,CO
NPS,Mesa Verde National Park,PARK MESA,1997,Lightning,0.1,A,37.2097,-108.4662,CO
NPS,Mesa Verde National Park,CHAPIN 1,1997,Lightning,0.1,A,37.2147,-108.492,CO
NPS,Mesa Verde National Park,LONG MESA1,1998,Lightning,0.1,A,37.2531,-108.5315,CO
NPS,Mesa Verde National Park,MILE 2,1998,Lightning,0.1,A,37.3128,-108.4126,CO
NPS,Mesa Verde National Park,CHAPIN 1,1998,Lightning,0.1,A,37.1642,-108.4834,CO
NPS,Mesa Verde National Park,MOCCASIN 1,1998,Lightning,0.1,A,37.23,-108.454,CO
NPS,Mesa Verde National Park,FARVIEW 1,1998,Lightning,0.1,A,37.236983,-108.504553,CO
NPS,Mesa Verde National Park,FEWKES,1998,Lightning,0.1,A,37.1675,-108.4851,CO
NPS,Mesa Verde National Park,FEWEKES 2,1998,Lightning,0.1,A,37.1675,-108.4851,CO
NPS,Mesa Verde National Park,MUG HOUSE,1998,Lightning,0.1,A,37.1997,-108.5429,CO
NPS,Mesa Verde National Park,MOCCASIN 2,1998,Lightning,0.2,A,37.2192,-108.4518,CO
NPS,Mesa Verde National Park,MONTEZUMA2,1998,Lightning,0.1,A,37.3006,-108.4365,CO
NPS,Mesa Verde National Park,CLIFF PAL,1998,Lightning,0.1,A,37.175,-108.4784,CO
NPS,Mesa Verde National Park,PARK 1,1998,Lightning,0.1,A,37.206986,-108.474445,CO
NPS,Mesa Verde National Park,BALCONY,1998,Lightning,0.1,A,37.1778,-108.4673,CO
NPS,Mesa Verde National Park,PARK 2,1998,Lightning,0.1,A,37.1861,-108.4534,CO
NPS,Mesa Verde National Park,BRAVO,1998,Lightning,0.1,A,37.2917,-108.4506,CO
NPS,Mesa Verde National Park,LONG SPUR,1998,Lightning,0.1,A,37.272652,-108.532162,CO
NPS,Mesa Verde National Park,MORFIELD,1998,Lightning,0.1,A,37.225471,-108.408829,CO
NPS,Mesa Verde National Park,OAK TREE,1998,Lightning,0.1,A,37.16531,-108.48216,CO
NPS,Mesa Verde National Park,PARK 1,1999,Campfire,0.1,A,37.1997,-108.4729,CO
NPS,Mesa Verde National Park,MILEPOST 3,1999,Lightning,1.0,B,37.3022,-108.4015,CO
NPS,Mesa Verde National Park,WATERLINE,1999,Lightning,0.2,A,37.3336,-108.4184,CO
NPS,Mesa Verde National Park,WICKIUP,1999,Lightning,0.1,A,37.1884,-108.510153,CO
NPS,Mesa Verde National Park,WILDHORSE1,1999,Lightning,0.1,A,37.18,-108.5434,CO
NPS,Mesa Verde National Park,FENCELINE,1999,Lightning,0.2,A,37.1506,-108.4354,CO
NPS,Mesa Verde National Park,WILDHORSE2,1999,Lightning,0.1,A,37.18,-108.5434,CO
NPS,Mesa Verde National Park,WILDHORSE3,1999,Lightning,0.1,A,37.1633,-108.534,CO
NPS,Mesa Verde National Park,CHAPIN 1,1999,Lightning,0.1,A,37.2167,-108.5084,CO
NPS,Rocky Mountain National Park,TWIN SISTE,1992,Lightning,0.1,A,40.25,-105.51667,CO
NPS,Rocky Mountain National Park,POWERLINE,1992,Powerline,0.1,A,40.19999,-105.55,CO
NPS,Rocky Mountain National Park,WINDRIVER,1992,Lightning,0.1,A,40.3,-105.51668,CO
NPS,Rocky Mountain National Park,MEADOW MTN,1992,Lightning,0.1,A,40.18333,-105.55001,CO
NPS,Rocky Mountain National Park,STEEP MT,1992,Lightning,0.1,A,40.33,-105.625,CO
NPS,Rocky Mountain National Park,SEVEN PINE,1993,Lightning,0.1,A,40.39222,-103.53334,CO
NPS,Rocky Mountain National Park,NORTHSUPPL,1993,Lightning,0.1,A,40.29166,-105.87501,CO
NPS,Rocky Mountain National Park,TWINSISTER,1993,Campfire,0.1,A,40.29166,-105.51667,CO
NPS,Rocky Mountain National Park,CHICKADEE,1993,Lightning,0.1,A,40.19999,-105.61667,CO
NPS,Rocky Mountain National Park,CAIRNS,1994,Campfire,90.0,C,40.23333,-105.75,CO
NPS,Rocky Mountain National Park,LILY LAKE,1994,Campfire,0.5,B,40.29999,-105.53334,CO
NPS,Rocky Mountain National Park,TUXEDO,1994,Lightning,0.1,A,40.35,-105.58334,CO
NPS,Rocky Mountain National Park,BIERSTADT,1994,Lightning,0.1,A,40.31666,-105.61667,CO
NPS,Rocky Mountain National Park,MCGRAW,1994,Lightning,0.1,A,40.29999,-105.60001,CO
NPS,Rocky Mountain National Park,SOLITUDE,1994,Lightning,0.2,A,40.26666,-105.7,CO
NPS,Rocky Mountain National Park,GEM LAKE,1994,Lightning,0.1,A,40.41666,-105.50001,CO
NPS,Rocky Mountain National Park,SOUTH COW,1994,Lightning,0.1,A,40.43332,-105.51667,CO
NPS,Rocky Mountain National Park,SKI SLOPE,1994,Lightning,0.1,A,40.38333,-105.66668,CO
NPS,Rocky Mountain National Park,FALL RIVER,1994,Lightning,0.1,A,40.38333,-105.60001,CO
NPS,Rocky Mountain National Park,LITTLE,1994,Lightning,0.1,A,40.39999,-105.6,CO
NPS,Rocky Mountain National Park,EAGLE CLIF,1995,Lightning,0.1,A,40.3663,-105.5693,CO
NPS,Rocky Mountain National Park,DEVILS PT.,1995,Lightning,0.1,A,40.41475,-105.86593,CO
NPS,Rocky Mountain National Park,SUMMERLAND,1995,Lightning,0.5,B,40.26277,-105.79721,CO
NPS,Rocky Mountain National Park,WILDBASIN,1996,Debris Burning,0.5,B,40.2193,-105.5311,CO
NPS,Rocky Mountain National Park,MCGREGOR,1996,Lightning,0.1,A,40.4,-105.55,CO
NPS,Rocky Mountain National Park,INDIANHEAD,1996,Lightning,0.1,A,40.41672,-105.49553,CO
NPS,Rocky Mountain National Park,STORM,1996,Missing/Undefined,0.2,A,40.45752,-105.37531,CO
NPS,Rocky Mountain National Park,COTTONTAIL,1996,Lightning,0.1,A,40.3228,-105.58046,CO
NPS,Rocky Mountain National Park,MOSQUITO,1996,Lightning,0.1,A,40.35579,-105.63252,CO
